store_name,store_address,store_lat,store_lon
Target,"1200 N Muldoon Rd Ste F, Anchorage, AK 99504, United States",61.2262581,-149.7467627
Target,"150 W 100th Ave Ste A, Anchorage, AK 99515, United States",61.1293983,-149.8811798
Target,"1801 E Parks Hwy, Wasilla, AK 99654, United States",61.5779604,-149.403722
Target,"4616 US-280, Birmingham, AL 35242, United States",33.425259,-86.7125552
Target,"531 Brookwood Village, Homewood, AL 35209, United States",33.4675636,-86.7750473
Target,"2750 Carl T Jones Dr SE Ste 7, Huntsville, AL 35802, United States",34.6732604,-86.5424162
Target,"5561 Grove Blvd, Birmingham, AL 35226, United States",33.3616601,-86.8532462
Target,"1654 Gadsden Hwy, Birmingham, AL 35235, United States",33.6053901,-86.63751
Target,"8207 Hwy 72 W, Madison, AL 35758, United States",34.7488201,-86.7562505
Target,"6275 University Dr NW, Huntsville, AL 35806, United States",34.7411366,-86.6815456
Target,"1901 13th Ave E, Tuscaloosa, AL 35404, United States",33.1923759,-87.5182551
Target,"4889 Promenade Pkwy, Bessemer, AL 35022, United States",33.3345501,-86.9897779
Target,"3489 Lowery Pkwy, Fultondale, AL 35068, United States",33.6060399,-86.8055573
Target,"2576 Berryhill Rd, Montgomery, AL 36117, United States",32.3609661,-86.159409
Target,"3820 Gulf Shores Pkwy, Gulf Shores, AL 36542, United States",30.3039796,-87.6799946
Target,"400 Oxford Exchange Blvd, Oxford, AL 36203, United States",33.6086959,-85.7820399
Target,"1235 Point Mallard Pkwy SE, Decatur, AL 35601, United States",34.5601477,-86.9715595
Target,"372 Cox Creek Pkwy, Florence, AL 35630, United States",34.8421099,-87.6347599
Target,"250 S Colonial Dr, Alabaster, AL 35007, United States",33.2242254,-86.8041737
Target,"790 Schillinger Rd S, Mobile, AL 36695, United States",30.6742129,-88.2287109
Target,"4601 Montgomery Hwy Ste 300, Dothan, AL 36303, United States",31.2657044,-85.4464222
Target,"2640 Enterprise Dr, Opelika, AL 36801, United States",32.6175588,-85.4109233
Target,"3150 Joe Treadwell Dr, Mobile, AL 36606, United States",30.6712327,-88.1203096
Target,"2754 Legends Pkwy, Prattville, AL 36066, United States",32.4572257,-86.3959121
Target,"1698 US-98, Daphne, AL 36526, United States",30.6028747,-87.8959317
Target Grocery,"8207 Hwy 72 W, Madison, AL 35758, United States",34.7488201,-86.7562505
Target Grocery,"1901 13th Ave E, Tuscaloosa, AL 35404, United States",33.192984,-87.5178301
Target,"2950 S Blue Angel Pkwy, Pensacola, FL 32506, United States",30.3629509,-87.3573086
Target,"1591 Bradley Park Dr, Columbus, GA 31904, United States",32.5350307,-84.9716059
Target Grocery,"1654 Gadsden Hwy, Birmingham, AL 35235, United States",33.6054494,-86.6376483
Target Grocery,"4601 Montgomery Hwy #300, Dothan, AL 36303, United States",31.2673388,-85.447228
Target Grocery,"3820 Gulf Shores Pkwy, Gulf Shores, AL 36542, United States",30.3039796,-87.6799946
Target Grocery,"4616 US-280, Birmingham, AL 35242, United States",33.425259,-86.7125552
Target Mobile,"790 Schillinger Rd S, Mobile, AL 36695, United States",30.6741773,-88.2290274
Target Mobile,"5561 Grove Blvd, Birmingham, AL 35226, United States",33.3616,-86.8525657
Target Mobile,"400 Oxford Exchange Blvd, Oxford, AL 36203, United States",33.6088012,-85.7823961
Target Mobile,"8207 Hwy 72 W, Madison, AL 35758, United States",34.748879,-86.7560849
Target Photo Center,"6275 University Dr NW, Huntsville, AL 35806, United States",34.7413716,-86.682252
Target Mobile,"4601 Montgomery Hwy #300, Dothan, AL 36303, United States",31.2657506,-85.4464704
Target Mobile,"1901 13th Ave E, Tuscaloosa, AL 35404, United States",33.1920286,-87.5183704
Target Grocery,"2576 Berryhill Rd, Montgomery, AL 36117, United States",32.3606937,-86.1600739
Target Mobile,"2750 Carl T Jones Dr SE Suite 7, Huntsville, AL 35802, United States",34.6733363,-86.5422585
Target Distribution Center,"6175 Greenbrier Pkwy NW, Madison, AL 35756, United States",34.6488048,-86.8466538
Target Mobile,"531 Brookwood Village, Homewood, AL 35209, United States",33.4669809,-86.7750043
Target Mobile,"6275 University Dr NW, Huntsville, AL 35806, United States",34.7411512,-86.6819514
Target Mobile,"1654 Gadsden Hwy, Birmingham, AL 35235, United States",33.6053698,-86.637484
Target Mobile,"2640 Enterprise Dr, Opelika, AL 36801, United States",32.6173196,-85.4106857
Target Mobile,"372 Cox Creek Pkwy, Florence, AL 35630, United States",34.842,-87.634114
Target Mobile,"2576 Berryhill Rd, Montgomery, AL 36117, United States",32.3605232,-86.1599629
Target,"Fultondale, AL 35068, United States",33.6056492,-86.8073359
Target Optical,"1654 Gadsden Hwy, Birmingham, AL 35235, United States",33.6054605,-86.6373315
Target Optical,"2750 Carl T Jones Dr SE, Huntsville, AL 35802, United States",34.6732706,-86.5424028
Target Optical,"1901 13th Ave E, Tuscaloosa, AL 35404, United States",33.1923759,-87.5182551
Target Optical,"5561 Grove Blvd, Hoover, AL 35226, United States",33.3618963,-86.8532665
Target Optical,"4616 US-280, Birmingham, AL 35242, United States",33.425259,-86.7125552
Target Optical,"790 Schillinger Rd S, Mobile, AL 36695, United States",30.6741059,-88.229023
Target,"3545 N Shiloh Dr, Fayetteville, AR 72703, United States",36.1163755,-94.1558134
Target,"2404 S Promenade Blvd, Rogers, AR 72758, United States",36.2993587,-94.1727497
Target,"12700 Chenal Pkwy, Little Rock, AR 72211, United States",34.7559297,-92.4148501
Target,"4000 McCain Blvd, North Little Rock, AR 72116, United States",34.7884407,-92.2286224
Target,"501 Elsinger Blvd, Conway, AR 72032, United States",35.086279,-92.41445
Target,"420 S University Ave, Little Rock, AR 72205, United States",34.7493548,-92.3448156
Target,"7377 Alcoa Rd, Bryant, AR 72022, United States",34.6040376,-92.5301614
Target,"4001 Phoenix Ave, Fort Smith, AR 72903, United States",35.3414469,-94.3875127
Target,"3000 E Highland Dr Ste A, Jonesboro, AR 72401, United States",35.8231849,-90.666687
Target Grocery,"420 S University Ave, Little Rock, AR 72205, United States",34.7493548,-92.3448156
Target Grocery,"12700 Chenal Pkwy, Little Rock, AR 72211, United States",34.7559297,-92.4148501
Target Package Store,"1500 W Roosevelt Rd, Little Rock, AR 72206, United States",34.7251155,-92.2900246
Target Grocery,"501 Elsinger Blvd, Conway, AR 72032, United States",35.086279,-92.41445
Target Mobile,"420 S University Ave, Little Rock, AR 72205, United States",34.7493545,-92.3446072
Target,"102 Richmond Ranch Rd, Texarkana, TX 75503, United States",33.4578106,-94.0919062
Target Mobile,"12700 Chenal Pkwy, Little Rock, AR 72211, United States",34.7562432,-92.4148834
Target Grocery,"3000 E Highland Dr Ste A, Jonesboro, AR 72401, United States",35.823099,-90.6645571
Target Mobile,"501 Elsinger Blvd, Conway, AR 72032, United States",35.0859269,-92.4146774
Target,"601 Colonial Rd, Memphis, TN 38117, United States",35.1136017,-89.9029796
Target,"5959 Poplar Ave, Memphis, TN 38119, United States",35.1008399,-89.8635178
Target Mobile,"3000 E Highland Dr Suite A, Jonesboro, AR 72401, United States",35.8236899,-90.6663891
Target,"7989 US-64, Memphis, TN 38133, United States",35.2041216,-89.7971979
Target,"1200 Branson Hills Pkwy, Branson, MO 65616, United States",36.6741026,-93.225885
Target,"5150 Goodman Rd, Olive Branch, MS 38654, United States",34.9654335,-89.8981586
Target,"9235 Poplar Ave, Germantown, TN 38138, United States",35.0645519,-89.7554496
Target,"325 New Byhalia Rd, Collierville, TN 38017, United States",35.0502974,-89.6908754
Target,"7255 Interstate Blvd, Horn Lake, MS 38637, United States",34.9661746,-90.005093
Target,"7110 Youree Dr, Shreveport, LA 71105, United States",32.4397413,-93.7203453
Target,"3151 E 7th St, Joplin, MO 64801, United States",37.085115,-94.4741295
Target,"1825 E Primrose St, Springfield, MO 65804, United States",37.151924,-93.2632346
Target Cafe-Pizza Hut Express,"3000 E Highland Dr Suite A, Jonesboro, AR 72401, United States",35.8229576,-90.6666107
Target Grocery,"9235 Poplar Ave, Germantown, TN 38138, United States",35.0645519,-89.7554496
Target,"6365 I 55 N, Jackson, MS 39213, United States",32.3988113,-90.148254
Target Grocery,"5959 Poplar Ave, Memphis, TN 38119, United States",35.1008399,-89.8635178
Target,"4151 AZ-90, Sierra Vista, AZ 85635, United States",31.5564543,-110.2563879
Target,"2140 E Baseline Rd, Phoenix, AZ 85042, United States",33.379662,-112.0343522
Target,"4515 E Thomas Rd, Phoenix, AZ 85018, United States",33.4775638,-111.9839212
Target,"1800 E Rio Salado Pkwy Ste 120, Tempe, AZ 85281, United States",33.4298757,-111.9058583
Target,"5715 N 19th Ave, Phoenix, AZ 85015, United States",33.5208515,-112.097379
Target,"1625 E Camelback Rd, Phoenix, AZ 85016, United States",33.5074123,-112.0463329
Target,"1818 E Baseline Rd, Tempe, AZ 85283, United States",33.3796402,-111.9079077
Target,"16806 N 7th St, Phoenix, AZ 85022, United States",33.6381086,-112.0688753
Target,"1230 S Longmore, Mesa, AZ 85202, United States",33.3915717,-111.8653637
Target,"10404 N 43rd Ave, Glendale, AZ 85302, United States",33.5802437,-112.1532676
Target,"2727 W Agua Fria Fwy, Phoenix, AZ 85027, United States",33.6665701,-112.1191478
Target,"8055 W Bell Rd, Peoria, AZ 85382, United States",33.6356612,-112.2282171
Target,"12602 N Paradise Village Pkwy W, Phoenix, AZ 85032, United States",33.6004996,-111.9896967
Target,"9350 W Northern Ave, Glendale, AZ 85305, United States",33.5544052,-112.2600936
Target,"9830 W Lower Buckeye Rd, Tolleson, AZ 85353, United States",33.4234428,-112.2695007
Target,"1525 S Power Rd, Mesa, AZ 85206, United States",33.3884182,-111.6830273
Target,"4734 E Ray Rd, Phoenix, AZ 85044, United States",33.3218984,-111.9811417
Target,"3931 S Gilbert Rd, Gilbert, AZ 85297, United States",33.2789082,-111.7859135
Target,"3777 S Arizona Ave, Chandler, AZ 85248, United States",33.2503016,-111.8376547
Target,"13731 W Bell Rd, Surprise, AZ 85374, United States",33.6368072,-112.3537192
Target,"24890 N Lake Pleasant Pkwy, Peoria, AZ 85383, United States",33.7101161,-112.2758045
Target,"995 S Cotton Ln, Goodyear, AZ 85338, United States",33.4377212,-112.4215774
Target,"7409 W Virginia Ave, Phoenix, AZ 85035, United States",33.4757981,-112.2179103
Target,"5110 S Power Rd, Mesa, AZ 85212, United States",33.3232497,-111.6902683
Target,"15444 N Frank Lloyd Wright Blvd, Scottsdale, AZ 85260, United States",33.6265712,-111.8887178
Target,"3425 W Frye Rd, Chandler, AZ 85226, United States",33.2957302,-111.8995851
Target,"21398 S Ellsworth Loop Rd, Queen Creek, AZ 85142, United States",33.2546526,-111.6417707
Target,"1851 E Highway 69, Prescott, AZ 86301, United States",34.5492954,-112.4320851
Target,"1515 E Warner Rd, Gilbert, AZ 85296, United States",33.3337446,-111.7575908
Target,"9000 Talking Stick Way, Scottsdale, AZ 85250, United States",33.5405152,-111.8869288
Target,"32351 N Scottsdale Rd, Scottsdale, AZ 85266, United States",33.7795313,-111.9225011
Target,"2151 N Power Rd, Mesa, AZ 85215, United States",33.4545859,-111.6826546
Target,"3699 AZ-95, Bullhead City, AZ 86442, United States",35.0513674,-114.5920095
Target,"1515 N Litchfield Rd, Goodyear, AZ 85395, United States",33.4632546,-112.3550121
Target,"10555 N Oracle Rd, Oro Valley, AZ 85737, United States",32.3990239,-110.9601638
Target,"3699 E Broadway Blvd, Tucson, AZ 85716, United States",32.2231445,-110.9147796
Target,"6500 E Grant Rd, Tucson, AZ 85715, United States",32.2486285,-110.8528705
Target,"9615 E Old Spanish Trail, Tucson, AZ 85748, United States",32.2075329,-110.7861886
Target,"21001 N Tatum Blvd Ste 20, Phoenix, AZ 85050, United States",33.674184,-111.9744196
Target,"1135 S Gilbert Rd, Mesa, AZ 85204, United States",33.3943485,-111.7855007
Target,"4040 N Oracle Rd, Tucson, AZ 85705, United States",32.2801901,-110.9761839
Target,"3901 W Ina Rd, Tucson, AZ 85741, United States",32.3356016,-111.048835
Target,"16825 E Shea Blvd, Fountain Hills, AZ 85268, United States",33.5733931,-111.7184273
Target,"1650 S Milton Rd, Flagstaff, AZ 86001, United States",35.1840575,-111.6591788
Target,"1450 Yuma Palms Pkwy, Yuma, AZ 85365, United States",32.7050523,-114.6061139
Target,"1225 W Irvington Rd, Tucson, AZ 85714, United States",32.1608318,-110.9900677
Target Grocery,"9830 W Lower Buckeye Rd, Tolleson, AZ 85353, United States",33.422993,-112.269267
Target Grocery,"9350 W Northern Ave, Glendale, AZ 85305, United States",33.5542682,-112.2598786
Target Grocery,"3777 S Arizona Ave, Chandler, AZ 85248, United States",33.2502426,-111.8376094
Target Grocery,"5110 S Power Rd, Mesa, AZ 85212, United States",33.323634,-111.6902736
Target Grocery,"2727 W Agua Fria Fwy, Phoenix, AZ 85027, United States",33.6665713,-112.1191478
Target Grocery,"9000 Talking Stick Way, Scottsdale, AZ 85250, United States",33.5405152,-111.8869288
Target Electronics,"3777 S Arizona Ave, Chandler, AZ 85248, United States",33.2503002,-111.8376548
Target,"12602 N Paradise Village Pkwy W, Phoenix, AZ 85032, United States",33.6005929,-111.9898273
Target Grocery,"1230 S Longmore, Mesa, AZ 85202, United States",33.3916851,-111.8652426
Target Grocery,"21398 S Ellsworth Loop Rd, Queen Creek, AZ 85142, United States",33.2544198,-111.6416934
Target Grocery,"1625 E Camelback Rd, Phoenix, AZ 85016, United States",33.5074123,-112.0463329
Target Grocery,"1515 E Warner Rd, Gilbert, AZ 85296, United States",33.3337446,-111.7575908
Target Grocery,"4734 E Ray Rd, Phoenix, AZ 85044, United States",33.3218984,-111.9811417
Target Grocery,"5715 N 19th Ave, Phoenix, AZ 85015, United States",33.5209647,-112.0974082
Target,"3535 S La Cienega Blvd, Los Angeles, CA 90016, United States",34.0234456,-118.3737783
Target,"29676 Rancho California Rd, Temecula, CA 92591, United States",33.5067957,-117.1461447
Target,"5700 Firestone Blvd, South Gate, CA 90280, United States",33.9480794,-118.1684027
Target,"12100 Harbor Blvd, Garden Grove, CA 92840, United States",33.7870416,-117.9133662
Target,"10600 Firestone Blvd, Norwalk, CA 90650, United States",33.9252273,-118.1070629
Target,"1701 N Gaffey St, San Pedro, CA 90731, United States",33.7605689,-118.2941325
Target,"1000 Commerce Ave, Atwater, CA 95301, United States",37.3412305,-120.6113644
Target,"16964 Slover Ave, Fontana, CA 92337, United States",34.0652427,-117.4341659
Target,"2120 W Main St, Alhambra, CA 91801, United States",34.0913719,-118.1472857
Target,"415 S La Brea Ave, Los Angeles, CA 90036, United States",34.0661484,-118.3443787
Target,"41040 California Oaks Rd, Murrieta, CA 92562, United States",33.5658978,-117.2031201
Target,"2040 California Ave, Sand City, CA 93955, United States",36.6211304,-121.8430953
Target,"735 S Figueroa St, Los Angeles, CA 90017, United States",34.0491696,-118.2608507
Target,"2700 Bell Rd, Auburn, CA 95603, United States",38.9430384,-121.0953101
Target,"4200 E 4th St, Ontario, CA 91764, United States",34.0756168,-117.561722
Target,"9725 Laurel Canyon Blvd, Pacoima, CA 91331, United States",34.245313,-118.4194137
Target,"11051 Victory Blvd, North Hollywood, CA 91606, United States",34.1885634,-118.3713954
Target,"950 Groveland Ln, Lincoln, CA 95648, United States",38.8699549,-121.3042972
Target,"2004 El Camino Real, Santa Clara, CA 95050, United States",37.3503277,-121.9610256
Target,"620 S Virgil Ave Ste 100, Los Angeles, CA 90005, United States",34.0631947,-118.2865404
Target,"1057 Eastshore Hwy, Albany, CA 94710, United States",37.8827713,-122.3066769
Target,"1800 Empire Ave, Burbank, CA 91504, United States",34.1890295,-118.3306705
Target,"2505 Riverside Blvd, Sacramento, CA 95818, United States",38.5621789,-121.4968653
Target,"11525 South St, Cerritos, CA 90703, United States",33.8593759,-118.0872116
Target,"5001 Junipero Serra Blvd, Colma, CA 94014, United States",37.6738414,-122.4642387
Target,"3471 W Century Blvd, Inglewood, CA 90305, United States",33.9483124,-118.3335923
Target,"101 S Euclid St, Anaheim, CA 92802, United States",33.8312352,-117.9430234
Target,"5500 Sunset Blvd, Los Angeles, CA 90028, United States",34.0978198,-118.309755
Target,"3100 Baldwin Park Blvd, Baldwin Park, CA 91706, United States",34.0692425,-117.9767022
Target,"27818 Clinton Keith Rd, Murrieta, CA 92562, United States",33.6041167,-117.1729802
Target,"2295 N Imperial Ave, El Centro, CA 92243, United States",32.8137492,-115.5671832
Target,"3433 Sepulveda Blvd, Torrance, CA 90505, United States",33.8270091,-118.3456469
Target,"10451 Fairway Dr, Roseville, CA 95678, United States",38.7909164,-121.2900543
Target,"72549 CA-111, Palm Desert, CA 92260, United States",33.7236804,-116.4033542
Target,"9882 Adams Ave, Huntington Beach, CA 92646, United States",33.6709728,-117.9562028
Target,"7530 Orangethorpe Ave, Buena Park, CA 90621, United States",33.857376,-118.0014648
Target,"3131 S Hoover St STE 1910, Los Angeles, CA 90089, United States",34.0259722,-118.2841969
Target,"499 W Orange Show Rd, San Bernardino, CA 92408, United States",34.0782375,-117.2922882
Target,"8480 Beverly Blvd Ste 1A, Los Angeles, CA 90048, United States",34.07523,-118.37559
Target,"2800 Naglee Rd, Tracy, CA 95304, United States",37.757638,-121.4579373
Target,"5600 Whittier Blvd, Commerce, CA 90022, United States",34.0178383,-118.1508511
Target,"2626 Colorado Blvd, Los Angeles, CA 90041, United States",34.1410828,-118.2240827
Target,"2195 Galleria Way, Glendale, CA 91210, United States",34.142998,-118.258603
Target,"560 Contra Costa Blvd, Pleasant Hill, CA 94523, United States",37.9769401,-122.0668563
Target,"1330 17th St, Santa Ana, CA 92705, United States",33.7590819,-117.850008
Target,"777 E Colorado Blvd, Pasadena, CA 91101, United States",34.1464065,-118.1345552
Target,"10820 Jefferson Blvd, Culver City, CA 90230, United States",33.9992941,-118.3934894
Target,"2059 Cadenasso Dr, Fairfield, CA 94533, United States",38.2465116,-122.0690503
Target,"2191 N Tustin St, Orange, CA 92865, United States",33.8249571,-117.8346229
Target,"3121 E Colorado Blvd, Pasadena, CA 91107, United States",34.1469308,-118.0847863
Target,"950 E 33rd St, Signal Hill, CA 90755, United States",33.8164505,-118.1815653
Target,"200 Westminster Mall, Westminster, CA 92683, United States",33.7462486,-118.0123521
Target,"430 Blue Ravine Rd, Folsom, CA 95630, United States",38.6718623,-121.1526034
Target,"2370 S Azusa Ave, West Covina, CA 91792, United States",34.0329892,-117.9115354
Target,"280 Spreckels Ave, Manteca, CA 95336, United States",37.7944428,-121.196629
Target,"12300 Seal Beach Blvd, Seal Beach, CA 90740, United States",33.7829443,-118.0694689
Target,"1871 N Main St, Walnut Creek, CA 94596, United States",37.9044618,-122.0647464
Target,"27100 Eucalyptus Ave, Moreno Valley, CA 92555, United States",33.9381355,-117.1893371
Target,"67750 E Palm Canyon Dr, Cathedral City, CA 92234, United States",33.7898367,-116.4807209
Target,"2462 Foothill Blvd, La Verne, CA 91750, United States",34.1096272,-117.759877
Target,"2490 S Colorado Blvd, Denver, CO 80222, United States",39.6708262,-104.9389766
Target,"11150 S Twenty Mile Rd, Parker, CO 80134, United States",39.5134938,-104.7723311
Target,"4301 E Virginia Ave, Glendale, CO 80246, United States",39.7085235,-104.9370601
Target,"1600 California St Ste 14, Denver, CO 80202, United States",39.7451674,-104.9916976
Target,"14500 W Colfax Ave Unit B1, Lakewood, CO 80401, United States",39.7334764,-105.1571457
Target,"5240 N Academy Blvd, Colorado Springs, CO 80918, United States",38.9046183,-104.7803537
Target,"3810 Bloomington St, Colorado Springs, CO 80922, United States",38.8888144,-104.718189
Target,"1630 E Cheyenne Mountain Blvd, Colorado Springs, CO 80906, United States",38.7925108,-104.8018711
Target,"14200 E Ellsworth Ave, Aurora, CO 80012, United States",39.7160154,-104.8217499
Target,"9670 Prominent Point, Colorado Springs, CO 80924, United States",38.9734786,-104.7464426
Target,"3650 River Point Pkwy, Sheridan, CO 80110, United States",39.6502584,-105.0055342
Target,"2171 Prairie Center Pkwy, Brighton, CO 80601, United States",39.9563288,-104.7803537
Target,"1400 S Havana St, Aurora, CO 80012, United States",39.6912757,-104.8627922
Target,"10445 Reed St, Westminster, CO 80021, United States",39.8864245,-105.079101
Target,"1001 E 120th Ave, Thornton, CO 80233, United States",39.9168942,-104.9750286
Target,"1985 Sheridan Boulevard, Edgewater, CO 80214, United States",39.7464123,-105.0561068
Target,"14451 Orchard Pkwy, Westminster, CO 80023, United States",39.9589235,-104.9956595
Target,"10001 Commons St, Lone Tree, CO 80124, United States",39.5349955,-104.8843208
Target,"1950 E County Line Rd, Highlands Ranch, CO 80126, United States",39.5652006,-104.9662659
Target,"7777 E Hampden Ave, Denver, CO 80231, United States",39.6549517,-104.9002075
Target,"5071 Kipling St, Wheat Ridge, CO 80033, United States",39.787987,-105.1129106
Target,"5010 Founders Pkwy, Castle Rock, CO 80108, United States",39.407939,-104.8562247
Target,"93 N Quebec St, Denver, CO 80230, United States",39.718149,-104.9043536
Target,"15700 E Briarwood Cir, Aurora, CO 80016, United States",39.5913909,-104.8044329
Target,"460 S Vance St, Lakewood, CO 80226, United States",39.7076356,-105.0789401
Target,"9390 W Cross Dr, Littleton, CO 80123, United States",39.6106609,-105.101594
Target,"7930 Northfield Blvd, Denver, CO 80238, United States",39.7832877,-104.8954512
Target,"1265 Sergeant Jon Stiles Dr, Highlands Ranch, CO 80129, United States",39.5496223,-105.0055123
Target,"7899 Wadsworth Blvd, Arvada, CO 80003, United States",39.8395973,-105.0855167
Target,"2936 Council Tree Ave, Fort Collins, CO 80525, United States",40.5275456,-105.0225019
Target,"400 Marshall Rd, Superior, CO 80027, United States",39.9564213,-105.1739772
Target,"551 S Hover St, Longmont, CO 80501, United States",40.1534505,-105.1343014
Target,"16910 E Quincy Ave, Aurora, CO 80015, United States",39.6363406,-104.7902003
Target,"6767 S Clinton St, Englewood, CO 80112, United States",39.5928457,-104.8817664
Target,"3530 Wolverine Dr, Montrose, CO 81401, United States",38.443413,-107.8689388
Target,"715 Blue River Pkwy, Silverthorne, CO 80498, United States",39.6377931,-106.0781631
Target,"1725 Rocky Mountain Ave, Loveland, CO 80538, United States",40.4097,-105.0040587
Target,"105 W Troutman Pkwy, Fort Collins, CO 80525, United States",40.5267824,-105.0785748
Target,"2800 Pearl St, Boulder, CO 80301, United States",40.0218227,-105.2558497
Target,"7400 S Gartrell Rd, Aurora, CO 80016, United States",39.5812327,-104.7220796
Target,"4400 Centerplace Dr, Greeley, CO 80634, United States",40.394375,-104.7500886
Target,"3300 Dillon Dr, Pueblo, CO 81008, United States",38.3026587,-104.6057728
Target,"460 S College Ave, Fort Collins, CO 80524, United States",40.5822074,-105.0762125
Target,"2424 Highway 6 and 50, Ste C, Grand Junction, CO 81505, United States",39.0929349,-108.601262
Target,"110 W Meadows, Glenwood Springs, CO 81601, United States",39.55599,-107.3428598
Target Grocery,"6767 S Clinton St, Englewood, CO 80112, United States",39.5928457,-104.8817664
Target Grocery,"4400 Centerplace Dr, Greeley, CO 80634, United States",40.394375,-104.7500886
Target Grocery,"400 Marshall Rd, Superior, CO 80027, United States",39.9556361,-105.1703511
Target Grocery,"1600 California St Ste 14, Denver, CO 80202, United States",39.7451995,-104.991597
Target Grocery,"9670 Prominent Point, Colorado Springs, CO 80924, United States",38.9734786,-104.7464426
Target,"1708 Dell Range Blvd, Cheyenne, WY 82009, United States",41.1620191,-104.8000475
Target Grocery,"14500 W Colfax Ave Unit B1, Lakewood, CO 80401, United States",39.7334764,-105.1571457
Target Grocery,"2424 Highway 6 and 50, Ste C, Grand Junction, CO 81505, United States",39.0897024,-108.5994715
Target Grocery,"10001 Commons St, Lone Tree, CO 80124, United States",39.5349955,-104.8843208
Target Grocery,"14451 Orchard Pkwy, Westminster, CO 80023, United States",39.9589235,-104.9956595
Target Grocery,"2171 Prairie Center Pkwy, Brighton, CO 80601, United States",39.9563288,-104.7803537
Target Grocery,"4301 E Virginia Ave, Glendale, CO 80246, United States",39.7088365,-104.9376617
Target Grocery,"1001 E 120th Ave, Thornton, CO 80233, United States",39.9168942,-104.9750286
Target Grocery,"9390 W Cross Dr, Littleton, CO 80123, United States",39.6106609,-105.101594
Target,"21 Broad St, Stamford, CT 06901, United States",41.05503,-73.5417688
Target,"333 N Main St STE 10, West Hartford, CT 06117, United States",41.7839091,-72.7479522
Target,"3265 Berlin Turnpike, Newington, CT 06111, United States",41.6609811,-72.7250482
Target,"125 Buckland Hills Dr, Manchester, CT 06042, United States",41.8103765,-72.5491354
Target,"1191 Boston Post Rd, Milford, CT 06460, United States",41.2347305,-73.0381661
Target,"600 Executive Blvd S, Southington, CT 06489, United States",41.6112499,-72.9012749
Target,"300 Chase Ave, Waterbury, CT 06704, United States",41.582583,-73.0343386
Target,"475 Hartford Rd, New Britain, CT 06053, United States",41.7109005,-72.762979
Target,"474 Chamberlain Hwy, Meriden, CT 06451, United States",41.5531951,-72.815913
Target,"200 Universal Dr N, North Haven, CT 06473, United States",41.3502562,-72.871671
Target,"25 Boston Post Rd, Orange, CT 06477, United States",41.2808231,-72.987946
Target,"900 Hartford Turnpike, Waterford, CT 06385, United States",41.3765636,-72.1501286
Target,"7 Stony Hill Rd, Bethel, CT 06801, United States",41.4144626,-73.4019981
Target,"5065 Main St Ste Target, Trumbull, CT 06611, United States",41.2293413,-73.2267736
Target,"1075 Kennedy Rd, Windsor, CT 06095, United States",41.8907841,-72.652129
Target,"90 Elm St, Enfield, CT 06082, United States",41.9961738,-72.5820083
Target,"3265 Berlin Turnpike, Newington, CT 06111, United States",41.6610477,-72.7251603
Target,"120 Hawley Ln, Trumbull, CT 06611, United States",41.2341615,-73.1517616
Target,"1922 E Main St, Torrington, CT 06790, United States",41.8182319,-73.0753915
Target,"2177 Killingly Cmns, Dayville, CT 06241, United States",41.8391437,-71.8844237
Target,"20 W Main St, Ansonia, CT 06401, United States",41.3407479,-73.079818
Target,"195 River Rd, Lisbon, CT 06351, United States",41.5857093,-71.9973694
Target Grocery,"120 Hawley Ln, Trumbull, CT 06611, United States",41.2341615,-73.1517616
Target Grocery,"600 Executive Blvd S, Southington, CT 06489, United States",41.6112499,-72.9012749
Target Grocery,"474 Chamberlain Hwy, Meriden, CT 06451, United States",41.5531951,-72.815913
Target Grocery,"333 N Main St, West Hartford, CT 06117, United States",41.7852197,-72.7480748
Target Grocery,"1191 Boston Post Rd, Milford, CT 06460, United States",41.2347097,-73.037439
Target Grocery,"1922 E Main St, Torrington, CT 06790, United States",41.8182319,-73.0753915
Target Grocery,"125 Buckland Hills Dr, Manchester, CT 06042, United States",41.8103765,-72.5491354
Target Grocery,"475 Hartford Rd, New Britain, CT 06053, United States",41.7109005,-72.762979
Target Grocery,"200 Universal Dr N, North Haven, CT 06473, United States",41.3502562,-72.871671
Target Grocery,"5065 Main St Ste Target, Trumbull, CT 06611, United States",41.2293413,-73.2267736
Target Grocery,"20 W Main St, Ansonia, CT 06401, United States",41.3407479,-73.079818
Target Grocery,"7 Stony Hill Rd, Bethel, CT 06801, United States",41.4144626,-73.4019981
Target,"9 City Pl, White Plains, NY 10601, United States",41.0323568,-73.7656206
Target Mobile,"475 Hartford Rd, New Britain, CT 06053, United States",41.7107995,-72.7633048
Target Mobile,"25 Boston Post Rd, Orange, CT 06477, United States",41.2808231,-72.987946
Target Mobile,"21 Broad St, Stamford, CT 06901, United States",41.055097,-73.541536
Target Mobile,"7 Stony Hill Rd, Bethel, CT 06801, United States",41.414362,-73.4018712
Target Mobile,"600 Executive Blvd S Suite 63, Southington, CT 06489, United States",41.6109509,-72.9019122
Target Mobile,"5065 Main St, Trumbull, CT 06611, United States",41.2287593,-73.2257411
Target Mobile,"1922 E Main St, Torrington, CT 06790, United States",41.8182744,-73.0755092
Target Mobile,"900 Hartford Turnpike, Waterford, CT 06385, United States",41.3770571,-72.1502104
Target Mobile,"1075 Kennedy Rd, Windsor, CT 06095, United States",41.8911436,-72.6521687
Target Mobile,"120 Hawley Ln, Trumbull, CT 06611, United States",41.2342113,-73.1518807
Target Mobile,"1191 Boston Post Rd, Milford, CT 06460, United States",41.2345874,-73.0378026
Target Mobile,"474 Chamberlain Hwy, Meriden, CT 06451, United States",41.5530424,-72.8158561
Target Mobile,"90 Elm St, Enfield, CT 06082, United States",41.9962177,-72.5826359
Target Mobile,"125 Buckland Hills Dr, Manchester, CT 06042, United States",41.8103133,-72.5491648
Target Mobile,"300 Chase Ave, Waterbury, CT 06704, United States",41.5829139,-73.0337423
Target,"195 N Bedford Rd Ste A, Mt Kisco, NY 10549, United States",41.2163924,-73.721858
Target,"101 Shore Rd, Port Washington, NY 11050, United States",40.8412312,-73.7048019
Target Photo Lab,"120 Hawley Ln, Trumbull, CT 06611, United States",41.2335078,-73.151921
Target Mobile,"200 Universal Dr N, North Haven, CT 06473, United States",41.3507807,-72.8715239
Target,"2975 Horseblock Road, Medford, NY 11763, United States",40.8249757,-72.989229
Target,"50 Holyoke St, Holyoke, MA 01040, United States",42.167693,-72.6419953
Target,"2003 Broadway Mall, Hicksville, NY 11801, United States",40.7722586,-73.5329613
Target,"500 E Sandford Blvd, Mt Vernon, NY 10550, United States",40.9004856,-73.8184817
Target,"3850 Hempstead Turnpike, Levittown, NY 11756, United States",40.7244415,-73.494199
Target,"3100 14th St NW Ste 201, Washington, DC 20010, United States",38.9293123,-77.032924
Target,"1515 New York Ave NE, Washington, DC 20002, United States",38.9163725,-76.98236
Target,"7828 Georgia Ave NW, Washington, DC 20012, United States",38.9844847,-77.0269171
Target,"3505 Connecticut Ave NW, Washington, DC 20008, United States",38.9358271,-77.0579951
Target,"4500 Wisconsin Ave NW, Washington, DC 20016, United States",38.9487791,-77.0808194
Target,"3101 Richmond Hwy, Alexandria, VA 22305, United States",38.8340796,-77.0494595
Target Grocery,"3100 14th St NW Ste 201, Washington, DC 20010, United States",38.9295555,-77.0332379
Target,"6163 Oxon Hill Rd, Oxon Hill, MD 20745, United States",38.8060389,-76.9832077
Target,"1500 Wilson Blvd, Rosslyn, VA 22209, United States",38.8943981,-77.0745942
Target Grocery,"7828 Georgia Ave NW, Washington, DC 20012, United States",38.9844847,-77.0269171
Target,"6831 Wisconsin Ave, Bethesda, MD 20815, United States",38.9782829,-77.0906199
Target,"3500 East-West Hwy Ste 1200, Hyattsville, MD 20782, United States",38.9685305,-76.9551242
Target,"500 S Washington St, Falls Church, VA 22046, United States",38.8795632,-77.1776412
Target Grocery,"3505 Connecticut Ave NW, Washington, DC 20008, United States",38.9360827,-77.0581104
Target,"7501 Baltimore Ave STE 1, College Park, MD 20740, United States",38.9824509,-76.9371325
Target,"3101 Donnell Dr, District Heights, MD 20747, United States",38.8489574,-76.8870638
Target,"5115 Leesburg Pike, Falls Church, VA 22041, United States",38.8444863,-77.1187632
Target,"10500 Campus Way S, Upper Marlboro, MD 20774, United States",38.8962324,-76.8272268
Target Mobile,"3100 14th St NW #201, Washington, DC 20010, United States",38.929591,-77.0331937
Target,"6111 Dobbin Rd, Columbia, MD 21045, United States",39.1974766,-76.8131681
Target,"740 N Glebe Rd, Arlington, VA 22203, United States",38.8795155,-77.1135957
Target,"6100 Arlington Blvd, Falls Church, VA 22044, United States",38.8682994,-77.1423268
Target Grocery,"4500 Wisconsin Ave NW, Washington, DC 20016, United States",38.9483447,-77.0803212
Target,"11160 Veirs Mill Rd, Silver Spring, MD 20902, United States",39.0367469,-77.0567671
Target,"6100 Greenbelt Rd, Greenbelt, MD 20770, United States",38.9987863,-76.9066234
Target,"10401 Martin Luther King Jr Hwy, Bowie, MD 20720, United States",38.9534003,-76.825064
Target,"12000 Cherry Hill Rd, Silver Spring, MD 20904, United States",39.0515481,-76.9567446
Target,"900 Army Navy Dr, Arlington, VA 22202, United States",38.8656672,-77.0625378
Target,"6600 Richmond Hwy, Alexandria, VA 22306, United States",38.775917,-77.0824723
Target,"2905 District Ave S Ste 400, Fairfax, VA 22031, United States",38.8724795,-77.229401
Target,"800 Christiana Mall, Newark, DE 19702, United States",39.6780851,-75.6501298
Target,"1050 Brandywine Pkwy, Wilmington, DE 19803, United States",39.8310279,-75.5405206
Target,"3240 Kirkwood Hwy, Wilmington, DE 19808, United States",39.7357978,-75.6262387
Target,"148 John Hunn Brown Rd, Dover, DE 19901, United States",39.1599477,-75.5107459
Target,"600 Hatton Dr, Glen Mills, PA 19342, United States",39.8804646,-75.527488
Target Grocery,"800 Christiana Mall, Newark, DE 19702, United States",39.678934,-75.6495727
Target Grocery,"1050 Brandywine Pkwy, Wilmington, DE 19803, United States",39.8311059,-75.540419
Target,"125 E N Pointe Dr, Salisbury, MD 21804, United States",38.4153992,-75.559875
Target Grocery,"148 John Hunn Brown Rd, Dover, DE 19901, United States",39.1599477,-75.5107459
Target Mobile,"800 Christiana Mall, Newark, DE 19702, United States",39.6782154,-75.6500794
Target,"857 Baltimore Pike, Springfield, PA 19064, United States",39.9151494,-75.3348187
Target,"1200 Baltimore Pike, Springfield, PA 19064, United States",39.9152213,-75.3500623
Target,"2100 N 2nd St, Millville, NJ 08332, United States",39.4201084,-75.0404884
Target,"1128 Chestnut St, Philadelphia, PA 19107, United States",39.9499747,-75.1598979
Target,"1 Mifflin St, Philadelphia, PA 19148, United States",39.9244293,-75.1459644
Target,"28539 Marlboro Ave, Easton, MD 21601, United States",38.7818476,-76.0870499
Target,"704 W Lancaster Ave, Devon, PA 19333, United States",40.0454165,-75.4087969
Target,"250 E Lancaster Ave, Wynnewood, PA 19096, United States",40.0029878,-75.2829959
Target,"456 N 5th St, Philadelphia, PA 19123, United States",39.9596518,-75.1480494
Target,"1900 Chestnut St, Philadelphia, PA 19103, United States",39.9516516,-75.172289
Target,"160 W Dekalb Pike, King of Prussia, PA 19406, United States",40.0954635,-75.3661764
Target,"201 Sunrise Blvd, Exton, PA 19341, United States",40.0391607,-75.6286283
Target,"1025 Middleton Rd, Aberdeen, MD 21001, United States",39.5209236,-76.1783752
Target,"380 Consumer Square, Mays Landing, NJ 08330, United States",39.4513134,-74.6338215
Target,"1139 White Horse Rd, Voorhees Township, NJ 08043, United States",39.8510055,-74.9838612
Target,"1900 Deptford Center Rd, Deptford, NJ 08096, United States",39.8301763,-75.0912278
Target,"675 Woodbury Glassboro Rd, Sewell, NJ 08080, United States",39.7645878,-75.1313698
Target,"1020 Broad St, Philadelphia, PA 19146, United States",39.9382594,-75.1673389
Target,"4000 Monument Rd, Philadelphia, PA 19131, United States",40.0063793,-75.2121702
Target,"4001 E Black Horse Pike, Turnersville, NJ 08012, United States",39.7327433,-75.0397582
Target,"4 Centerton Rd, Mt Laurel Township, NJ 08054, United States",39.9680328,-74.9147567
Target,"751 NJ-73 S, Marlton, NJ 08053, United States",39.8663743,-74.9227231
Target,"487 Berlin - Cross Keys Rd, Sicklerville, NJ 08081, United States",39.7473118,-74.9948457
Target,"2385 Covered Bridge Dr, Lancaster, PA 17602, United States",40.0266366,-76.2040493
Target,"7400 Bustleton Ave, Philadelphia, PA 19152, United States",40.0511908,-75.059472
Target,"180 Eagleview Blvd, Exton, PA 19341, United States",40.0524635,-75.6656875
Target,"250 New Rd, Somers Point, NJ 08244, United States",39.3251542,-74.5952631
Target,"580 Marketplace Dr, Bel Air, MD 21014, United States",39.5254554,-76.3504943
Target,"2701 Castor Ave, Philadelphia, PA 19134, United States",39.9910961,-75.0890471
Target,"1824 E Ridge Pike, Royersford, PA 19468, United States",40.2107675,-75.4983701
Target,"3559 Boston St, Baltimore, MD 21224, United States",39.2750701,-76.5664443
Target,"7162 Ridge Ave, Philadelphia, PA 19128, United States",40.0441542,-75.2330475
Target,"401 Easton Rd, Warrington, PA 18976, United States",40.2237688,-75.1364781
Target,"800 Rockhill Dr, Bensalem, PA 19020, United States",40.135473,-74.9623403
Target,"650 W Cuthbert Blvd, Haddon Township, NJ 08108, United States",39.9005149,-75.062301
Target,"403 Constant Friendship Blvd, Abingdon, MD 21009, United States",39.4597357,-76.3165092
Target,"2703 County Rd 541, Burlington Township, NJ 08016, United States",40.0360565,-74.8225479
Target,"2626 Delaware Ave, Buffalo, NY 14216, United States",42.9555373,-78.87418
Target,"2001 Pennsylvania Ave, Philadelphia, PA 19130, United States",39.9616047,-75.1726872
Target,"5230 Campbell Blvd, Nottingham, MD 21236, United States",39.3711591,-76.4514074
Target,"200 Kent Manor Dr, Stevensville, MD 21666, United States",38.976336,-76.3190425
Target,"4004 Rte 130 N, Delran, NJ 08075, United States",40.0122032,-74.9588775
Target,"455 Carnegie Blvd, Malvern, PA 19355, United States",40.0490112,-75.5201568
Target,"11000 Roosevelt Blvd Ste 3, Philadelphia, PA 19116, United States",40.1021537,-75.0108947
Target,"2340 FL-77, Panama City, FL 32405, United States",30.1912248,-85.6488539
Target,"250 E Miracle Strip Pkwy, Mary Esther, FL 32569, United States",30.411029,-86.6593768
Target,"853 Harbor Blvd, Destin, FL 32541, United States",30.3912672,-86.4814898
Target,"4727 US-90, Pace, FL 32571, United States",30.6008066,-87.1268576
Target,"15555 Starfish St, Panama City Beach, FL 32413, United States",30.2191684,-85.8680601
Target,"2120 Apalachee Pkwy, Tallahassee, FL 32301, United States",30.432465,-84.2442576
Target,"1861 W Tennessee St, Tallahassee, FL 32304, United States",30.4477629,-84.313856
Target,"4750 Millenia Plaza Way, Orlando, FL 32839, United States",28.4932827,-81.4301197
Target,"880 Sand Lake Rd, Orlando, FL 32809, United States",28.4495914,-81.3911475
Target,"10500 Ulmerton Rd, Largo, FL 33771, United States",27.893179,-82.7836701
Target,"8151 Dr M.L.K. Jr St N, St. Petersburg, FL 33702, United States",27.8465269,-82.6434489
Target,"3200 Rolling Oaks Blvd, Kissimmee, FL 34747, United States",28.3437512,-81.6139542
Target,"4450 Park St N, St. Petersburg, FL 33709, United States",27.812252,-82.7560501
Target,"2747 Gulf to Bay Blvd, Clearwater, FL 33759, United States",27.9585891,-82.7240926
Target,"2900 Little Rd, Trinity, FL 34655, United States",28.2009613,-82.6638011
Target,"6150 14th St W, Bradenton, FL 34207, United States",27.4321976,-82.5780341
Target,"5100 FL-100, Palm Coast, FL 32164, United States",29.4774875,-81.2187728
Target,"900 E Lake Rd S, Palm Harbor, FL 34685, United States",28.0634006,-82.7076828
Target,"6295 W Waters Ave, Tampa, FL 33634, United States",28.0281721,-82.5488493
Target,"7150 US Hwy 19 N, Pinellas Park, FL 33781, United States",27.8363143,-82.6842888
Target,"10150 Bloomingdale Ave, Riverview, FL 33578, United States",27.8958915,-82.3334947
Target,"4401 Commercial Way, Spring Hill, FL 34606, United States",28.4957237,-82.5985183
Target,"4410 S US Hwy 17 92, Casselberry, FL 32707, United States",28.6715157,-81.3409728
Target,"1040 Dale Mabry Hwy, Lutz, FL 33548, United States",28.1732953,-82.4696911
Target,"187 Brandon Town Center Dr, Brandon, FL 33511, United States",27.9360867,-82.3233147
Target,"886 W State Rd 436, Altamonte Springs, FL 32714, United States",28.6623843,-81.41801
Target,"716 US-441, The Villages, FL 32159, United States",28.9331269,-81.9403651
Target,"718 Maguire Blvd, Orlando, FL 32803, United States",28.5556661,-81.3450764
Target,"3625 W Gandy Blvd, Tampa, FL 33611, United States",27.8951569,-82.505222
Target,"3970 SW Archer Rd, Gainesville, FL 32608, United States",29.6215071,-82.3843422
Target,"2660 FL-50, Clermont, FL 34711, United States",28.5497369,-81.7053335
Target,"1201 Co Rd 581, Wesley Chapel, FL 33544, United States",28.1735266,-82.3558694
Target,"5000 Grandview Pkwy, Davenport, FL 33837, United States",28.2335301,-81.6440913
Target,"15240 N Dale Mabry Hwy, Tampa, FL 33618, United States",28.0891267,-82.5052781
Target,"2155 Town Center Blvd, Orlando, FL 32837, United States",28.3698305,-81.4071999
Target,"3343 Daniels Rd, Winter Garden, FL 34787, United States",28.5206184,-81.5851757
Target,"13740 Beach Blvd, Jacksonville, FL 32224, United States",30.2850246,-81.4566268
Target,"21637 FL-7, Boca Raton, FL 33428, United States",26.355095,-80.2051152
Target,"6331 Roosevelt Blvd, Jacksonville, FL 32244, United States",30.2354031,-81.6943881
Target,"2000 SW College Rd, Ocala, FL 34471, United States",29.1741831,-82.1565751
Target,"4271 S Tamiami Trail, Venice, FL 34293, United States",27.0524654,-82.3911198
Target,"11619 Daryl Carter Pkwy, Orlando, FL 32821, United States",28.3962883,-81.4850608
Target,"3770 N Goldenrod Rd, Winter Park, FL 32792, United States",28.5948493,-81.2878411
Target,"3570 Harden Blvd, Lakeland, FL 33803, United States",27.999721,-81.9724013
Target,"1490 County Rd 220, Orange Park, FL 32003, United States",30.1043852,-81.7080064
Target,"4005 US Hwy 98 N, Lakeland, FL 33809, United States",28.0918218,-81.9705599
Target,"120 W Grant St, Orlando, FL 32806, United States",28.5156994,-81.3800952
Target,"9041 Southside Blvd, Jacksonville, FL 32256, United States",30.1941143,-81.5487683
Target,"10490 San Jose Blvd, Jacksonville, FL 32257, United States",30.1881625,-81.6297956
Target,"8401 S Tamiami Trail, Sarasota, FL 34238, United States",27.2285863,-82.4927037
Target,"1201 WP Ball Blvd, Sanford, FL 32771, United States",28.7984021,-81.3367477
Target,"4155 W Lake Mary Blvd, Lake Mary, FL 32746, United States",28.7541211,-81.348391
Target,"5350 Fruitville Rd, Sarasota, FL 34232, United States",27.3361561,-82.4625827
Target,"4305 Norfolk Pkwy Ste 102, Melbourne, FL 32904, United States",28.0384175,-80.6607476
Target,"2750 W New Haven Ave, Melbourne Village, FL 32904, United States",28.08074,-80.6654033
Target,"13658 University Plaza St, Tampa, FL 33613, United States",28.0720124,-82.4278292
Target,"2415 Tarpon Bay Blvd, Naples, FL 34119, United States",26.2701935,-81.7399005
Target,"820 Oviedo Mall Boulevard, Oviedo, FL 32765, United States",28.6575394,-81.235081
Target,"204 Ruby Red Pl, Winter Garden, FL 34787, United States",28.3801031,-81.6167485
Target,"10101 W Flagler St, Miami, FL 33174, United States",25.7717447,-80.360123
Target,"3660 Marketplace Blvd, East Point, GA 30344, United States",33.6589823,-84.4990732
Target,"375 18th St NW, Atlanta, GA 30363, United States",33.7932856,-84.3993367
Target,"2201 Cobb Pkwy SE, Smyrna, GA 30080, United States",33.8981493,-84.4790309
Target,"3535 Peachtree Rd NE, Atlanta, GA 30326, United States",33.8516403,-84.3596269
Target,"140 Woodstock Square Ave, Woodstock, GA 30189, United States",34.0854604,-84.546626
Target,"740 Ernest W Barrett Pkwy NW, Kennesaw, GA 30144, United States",34.0094754,-84.573743
Target,"2022 Cumming Hwy, Canton, GA 30115, United States",34.2341249,-84.4571924
Target,"4125 Austell Rd, Austell, GA 30106, United States",33.8513729,-84.6026091
Target,"3378 Cobb Pkwy NW, Acworth, GA 30101, United States",34.0397567,-84.6842803
Target,"1209 Peachtree Pkwy N, Peachtree City, GA 30269, United States",33.4370468,-84.5894247
Target,"5220 Jimmy Lee Smith Pkwy #118, Hiram, GA 30141, United States",33.8853497,-84.7447194
Target,"107 Pavilion Pkwy, Fayetteville, GA 30214, United States",33.4820797,-84.4390925
Target,"2950 Chapel Hill Rd, Douglasville, GA 30135, United States",33.7258455,-84.7346579
Target,"1591 Bradley Park Dr, Columbus, GA 31904, United States",32.5350307,-84.9716059
Target,"3040 Shallowford Rd, Marietta, GA 30062, United States",34.0351329,-84.4609203
Target,"100 Cherokee Pl, Cartersville, GA 30121, United States",34.17276,-84.7858047
Target,"1401 Johnson Ferry Rd, Marietta, GA 30062, United States",33.9851608,-84.4292144
Target,"2535 Dallas Hwy SW, Marietta, GA 30064, United States",33.9445257,-84.6261647
Target,"1129 S Park St, Carrollton, GA 30117, United States",33.5585988,-85.0770774
Target,"555 Bullsboro Dr, Newnan, GA 30265, United States",33.3928968,-84.7581595
Target,"5570 Roswell Rd, Sandy Springs, GA 30342, United States",33.9057851,-84.3806531
Target,"1275 Caroline St NE, Atlanta, GA 30307, United States",33.7569541,-84.3463134
Target,"13055 GA-9 N, Milton, GA 30004, United States",34.0990908,-84.2691681
Target,"2539 Piedmont Rd NE, Atlanta, GA 30324, United States",33.8240175,-84.3634115
Target,"100 Perimeter Center Pl, Atlanta, GA 30346, United States",33.9308157,-84.3416149
Target,"1135 Woodstock Rd, Roswell, GA 30075, United States",34.0639877,-84.3975448
Target,"2400 N Druid Hills Rd, Atlanta, GA 30329, United States",33.8282852,-84.3252182
Target,"1850 Jonesboro Rd, McDonough, GA 30253, United States",33.4678175,-84.21687
Target,"6000 North Point Pkwy, Alpharetta, GA 30022, United States",34.0458973,-84.2863056
Target,"2625 Peachtree Pkwy, Suwanee, GA 30024, United States",34.0972222,-84.1724704
Target,"3200 Holcomb Bridge Rd, Peachtree Corners, GA 30092, United States",33.9512975,-84.2320659
Target,"4241 Lavista Rd, Tucker, GA 30084, United States",33.8446344,-84.2454957
Target,"1905 Scenic Hwy N, Snellville, GA 30078, United States",33.8745935,-84.0164386
Target,"5950 State Bridge Rd, Duluth, GA 30097, United States",34.0146141,-84.1888427
Target,"2195 GA-20 SE, Conyers, GA 30013, United States",33.6329612,-84.0169076
Target,"2721 Dawson Rd, Albany, GA 31707, United States",31.6217748,-84.2249954
Target,"875 Lawrenceville-Suwanee Rd Ste 4000, Lawrenceville, GA 30043, United States",33.9705076,-84.0142637
Target,"1525 Market Pl Blvd, Cumming, GA 30041, United States",34.1861764,-84.1348208
Target,"3205 Woodward Crossing Blvd Ste B, Buford, GA 30519, United States",34.0701011,-83.9817821
Target,"5865 Spout Springs Rd, Flowery Branch, GA 30542, United States",34.1805812,-83.9105872
Target,"514 Shallowford Rd, Gainesville, GA 30504, United States",34.290009,-83.8468044
Target,"3065 Atlanta Hwy, Athens, GA 30606, United States",33.9413245,-83.4411773
Target,"916 Loganville Hwy Ste 400, Bethlehem, GA 30620, United States",33.9432851,-83.7526149
Target,"2929 Watson Blvd, Warner Robins, GA 31093, United States",32.6165089,-83.6863925
Target,"1815 Norman Dr, Valdosta, GA 31601, United States",30.8431284,-83.3159716
Target,"127 E Broad St, Athens, GA 30601, United States",33.9576534,-83.3764075
Target,"235 Robert C Daniel Jr Pkwy, Augusta, GA 30909, United States",33.4904972,-82.0817375
Target,"200 Glynn Isle, Brunswick, GA 31525, United States",31.201287,-81.479837
Target,"14065 Abercorn St, Savannah, GA 31419, United States",31.9841407,-81.1746917
Target Grocery,"5220 Jimmy Lee Smith Pkwy, Hiram, GA 30141, United States",33.885608,-84.7443085
Target,"1907 E Victory Dr, Savannah, GA 31404, United States",32.040438,-81.0690837
Target Grocery,"2201 Cobb Pkwy SE, Smyrna, GA 30080, United States",33.8981493,-84.4790309
Target,"7828 Georgia Ave NW, Washington, DC 20012, United States",38.9844847,-77.0269171
Target,"4223 Washington Rd, Evans, GA 30809, United States",33.5270726,-82.1178756
Target Grocery,"2195 GA-20 SE, Conyers, GA 30013, United States",33.6329612,-84.0169076
Target Grocery,"1850 Jonesboro Rd, McDonough, GA 30253, United States",33.4678175,-84.21687
Target Grocery,"3065 Atlanta Hwy, Athens, GA 30606, United States",33.9413245,-83.4411773
Target Grocery,"2721 Dawson Rd, Albany, GA 31707, United States",31.6218647,-84.2250793
Target Grocery,"2625 Peachtree Pkwy, Suwanee, GA 30024, United States",34.0972222,-84.1724704
Target,"5579 TN-153, Hixson, TN 37343, United States",35.1462173,-85.2519454
Target,"1450 Ala Moana Blvd Suite 2401, Honolulu, HI 96814, United States",21.2923527,-157.8421734
Target,"4380 Lawehana St, Honolulu, HI 96818, United States",21.3553179,-157.929448
Target,"345 Hahani St, Kailua, HI 96734, United States",21.3914281,-157.7394305
Target,"4450 Kapolei Pkwy Ste 100, Kapolei, HI 96707, United States",21.331867,-158.0922185
Target,"391 Makaala St, Hilo, HI 96720, United States",19.7006301,-155.0596618
Target,"100 Ho'okele St, Kahului, HI 96732, United States",20.8746025,-156.4548597
Target,"74-5455 Makala Blvd, Kailua-Kona, HI 96740, United States",19.6479382,-156.0030595
Target,"4303 Nawiliwili Rd, Lihue, HI 96766, United States",21.9680857,-159.3769622
Target Grocery,"391 Makaala St, Hilo, HI 96720, United States",19.700514,-155.0593808
Target,"1111 E Army Post Rd Ste 2204, Des Moines, IA 50315, United States",41.5237842,-93.6027075
Target,"1441 Coral Ridge Ave, Coralville, IA 52241, United States",41.6911455,-91.5990603
Target,"113 E Washington St, Iowa City, IA 52240, United States",41.659752,-91.5339599
Target,"5901 Douglas Ave, Des Moines, IA 50322, United States",41.6303468,-93.699812
Target,"5405 Mills Civic Pkwy, West Des Moines, IA 50266, United States",41.5613342,-93.7793053
Target,"3414 8th St SW, Altoona, IA 50009, United States",41.641266,-93.5042937
Target,"1800 Valley W Dr, West Des Moines, IA 50266, United States",41.5996362,-93.7533488
Target,"320 S Duff Ave, Ames, IA 50010, United States",42.0194412,-93.6068394
Target,"11148 Plum Dr, Urbandale, IA 50322, United States",41.6471501,-93.7666833
Target,"1030 Blairs Ferry Rd NE, Cedar Rapids, IA 52402, United States",42.0371222,-91.6510224
Target,"3804 Metro Dr, Council Bluffs, IA 51501, United States",41.2206463,-95.8389939
Target,"3400 Edgewood Rd SW, Cedar Rapids, IA 52404, United States",41.9449718,-91.7176937
Target,"1501 E San Marnan Dr, Waterloo, IA 50702, United States",42.4657709,-92.3280171
Target,"525 S Gear Ave, West Burlington, IA 52655, United States",40.8211903,-91.1723489
Target,"3450 4th St SW, Mason City, IA 50401, United States",43.1502468,-93.2531768
Target,"2135 SE Delaware Ave, Ankeny, IA 50021, United States",41.7094459,-93.5783843
Target,"214 Viking Plaza Dr, Cedar Falls, IA 50613, United States",42.4809955,-92.4441915
Target,"5225 Elmore Avenue, Davenport, IA 52807, United States",41.5731502,-90.5263731
Target,"5775 Sunnybrook Dr, Sioux City, IA 51106, United States",42.4486122,-96.33358
Target,"2910 1st Ave S, Fort Dodge, IA 50501, United States",42.5065571,-94.156975
Target,"3500 Dodge St, Dubuque, IA 52003, United States",42.4898757,-90.7221374
Target Grocery,"11148 Plum Dr, Urbandale, IA 50322, United States",41.6471501,-93.7666833
Target Grocery,"1441 Coral Ridge Ave, Coralville, IA 52241, United States",41.6914014,-91.5990447
Target Grocery,"113 E Washington St, Iowa City, IA 52240, United States",41.659752,-91.5339599
Target Grocery,"3414 8th St SW, Altoona, IA 50009, United States",41.641266,-93.5042937
Target Grocery,"5901 Douglas Ave, Des Moines, IA 50322, United States",41.6300552,-93.7004633
Target Grocery,"320 S Duff Ave, Ames, IA 50010, United States",42.0194412,-93.6068394
Target Grocery,"1501 E San Marnan Dr, Waterloo, IA 50702, United States",42.4657709,-92.3280171
Target Grocery,"3804 Metro Dr, Council Bluffs, IA 51501, United States",41.2200625,-95.8391751
Target Grocery,"3500 Dodge St, Dubuque, IA 52003, United States",42.4904683,-90.7227223
Target Grocery,"2135 SE Delaware Ave, Ankeny, IA 50021, United States",41.7097846,-93.5777893
Target,"3600 S Louise Ave, Sioux Falls, SD 57106, United States",43.5121687,-96.7686359
Target Mobile,"320 S Duff Ave, Ames, IA 50010, United States",42.0193087,-93.606522
Target Mobile,"3414 8th St SW, Altoona, IA 50009, United States",41.6412637,-93.503916
Target Grocery,"214 Viking Plaza Dr, Cedar Falls, IA 50613, United States",42.4809955,-92.4441915
Target Mobile,"5901 Douglas Ave, Des Moines, IA 50322, United States",41.6300552,-93.7004633
Target Grocery,"1030 Blairs Ferry Rd NE, Cedar Rapids, IA 52402, United States",42.0371222,-91.6510224
Target Mobile,"5405 Mills Civic Pkwy, West Des Moines, IA 50266, United States",41.561748,-93.779414
Target Grocery,"2910 1st Ave S, Fort Dodge, IA 50501, United States",42.5065571,-94.156975
Target Mobile,"1800 Valley W Dr, West Des Moines, IA 50266, United States",41.5996578,-93.7532915
Target Mobile,"525 S Gear Ave, West Burlington, IA 52655, United States",40.8211721,-91.1725665
Target Mobile,"2910 1st Ave S, Fort Dodge, IA 50501, United States",42.5065969,-94.1569195
Target Mobile,"1441 Coral Ridge Ave, Coralville, IA 52241, United States",41.6914159,-91.5994317
Target Mobile,"1501 E San Marnan Dr, Waterloo, IA 50702, United States",42.4656904,-92.3279134
Target Mobile,"3450 4th St SW, Mason City, IA 50401, United States",43.1501938,-93.2536337
Target Mobile,"2135 SE Delaware Ave, Ankeny, IA 50021, United States",41.7094425,-93.5780788
Target Mobile,"5225 Elmore Avenue, Davenport, IA 52807, United States",41.5728086,-90.52598
Target,"3201 S Iowa St, Lawrence, KS 66046, United States",38.9253598,-95.2636018
Target Distribution Center,"2200 Viking Rd, Cedar Falls, IA 50613, United States",42.4821106,-92.4709239
Target Distribution Center # 0590,"6601 Hudson Rd, Cedar Falls, IA 50613, United States",42.4790675,-92.4670885
Target Mobile,"3400 Edgewood Rd SW, Cedar Rapids, IA 52404, United States",41.9446018,-91.7174848
Target Optical,"11148 Plum Dr, Urbandale, IA 50322, United States",41.647461,-93.7668696
Target Optical,"1030 Blairs Ferry Rd NE, Cedar Rapids, IA 52402, United States",42.0371516,-91.6508622
Target Optical,"5405 Mills Civic Pkwy, West Des Moines, IA 50266, United States",41.561802,-93.779357
Target Optical,"1501 E San Marnan Dr, Waterloo, IA 50702, United States",42.4657709,-92.3280171
Target,"2171 S 25th E, Idaho Falls, ID 83406, United States",43.477463,-111.9835614
Target,"6280 N Eagle Rd, Boise, ID 83713, United States",43.6612473,-116.351739
Target,"315 W Canfield Ave, Coeur d'Alene, ID 83815, United States",47.7346984,-116.7910599
Target,"16300 N Marketplace Blvd, Nampa, ID 83687, United States",43.6097946,-116.588899
Target,"633 N Milwaukee St, Boise, ID 83704, United States",43.6103489,-116.2857813
Target,"1611 Blue Lakes Blvd N, Twin Falls, ID 83301, United States",42.5912486,-114.4634909
Target,"2132 W Pullman Rd, Moscow, ID 83843, United States",46.734015,-117.0312769
Target,"13724 E Sprague Ave, Spokane, WA 99216, United States",47.6564576,-117.2205761
Target Grocery,"315 W Canfield Ave, Coeur d'Alene, ID 83815, United States",47.7352057,-116.7912856
Target,"4915 S Regal St, Spokane, WA 99223, United States",47.6091269,-117.3647984
Target Mobile,"Parking lot, 6280 N Eagle Rd, Boise, ID 83713, United States",43.6612399,-116.3517387
Target Mobile,"633 N Milwaukee St, Boise, ID 83704, United States",43.6104191,-116.2861996
Target Mobile,"1611 Blue Lakes Blvd N, Twin Falls, ID 83301, United States",42.591307,-114.4635077
Target,"7100 S Cicero Ave, Chicago, IL 60629, United States",41.7631271,-87.7434226
Target,"401 E Illinois St, Chicago, IL 60611, United States",41.8909049,-87.6173923
Target,"2939 W Addison St, Chicago, IL 60618, United States",41.945392,-87.702165
Target,"130 S Mannheim Rd, Hillside, IL 60162, United States",41.868343,-87.8878048
Target,"3400 Green Mt Crossing Dr, Shiloh, IL 62269, United States",38.5731181,-89.9234253
Target,"1800 Orchard Gateway Blvd, North Aurora, IL 60542, United States",41.7980199,-88.3653639
Target,"4433 S Pulaski Rd, Chicago, IL 60632, United States",41.8124223,-87.72192
Target,"4466 N Broadway, Chicago, IL 60640, United States",41.9633566,-87.6564605
Target,"1235 E Higgins Rd, Schaumburg, IL 60173, United States",42.0373801,-88.0489927
Target,"355 W Mound Rd, Decatur, IL 62526, United States",39.8904071,-88.9584545
Target,"7000 Mannheim Rd, Rosemont, IL 60018, United States",42.0071456,-87.8871914
Target,"6422 N Sheridan Rd Unit A, Chicago, IL 60626, United States",41.9989821,-87.6609644
Target,"3885 E Main St, St. Charles, IL 60174, United States",41.9182098,-88.2645407
Target,"800 Broadview Village Square, Broadview, IL 60155, United States",41.8550927,-87.8508318
Target,"3445 Freedom Dr, Springfield, IL 62704, United States",39.7497614,-89.7106993
Target,"5601 Belleville Crossing St, Belleville, IL 62226, United States",38.5262053,-90.031924
Target,"4120 W 95th St, Oak Lawn, IL 60453, United States",41.7212672,-87.7257271
Target,"15850 S 94th Ave, Orland Park, IL 60462, United States",41.6028313,-87.8505248
Target,"4050 N Harlem Ave, Norridge, IL 60706, United States",41.9535179,-87.8090663
Target,"850 W North Ave, Melrose Park, IL 60160, United States",41.9052039,-87.8434642
Target,"1400 E Lake Cook Rd, Wheeling, IL 60090, United States",42.1543708,-87.9502427
Target,"679 E Dundee Rd, Palatine, IL 60074, United States",42.137124,-88.0269843
Target,"2102 N Prospect Ave, Champaign, IL 61822, United States",40.1415686,-88.255385
Target,"2621 W Schaumburg Rd, Schaumburg, IL 60194, United States",42.0228977,-88.1460652
Target,"3000 W Deyoung St, Marion, IL 62959, United States",37.7490748,-88.9799713
Target,"7601 Kingery Hwy, Willowbrook, IL 60527, United States",41.7494511,-87.9429774
Target,"5071 Cal Sag Rd, Crestwood, IL 60418, United States",41.6569308,-87.7463456
Target,"1700 E Rand Rd, Arlington Heights, IL 60004, United States",42.1020188,-87.9618124
Target,"2350 Troy Rd, Edwardsville, IL 62025, United States",38.7830994,-89.9485295
Target,"1346 E 53rd St, Chicago, IL 60615, United States",41.7997443,-87.5934283
Target,"1664 W Division St, Chicago, IL 60622, United States",41.9035579,-87.6701177
Target,"5580 Northwest Hwy, Crystal Lake, IL 60014, United States",42.2291665,-88.3055542
Target,"4701 N Illinois St, Fairview Heights, IL 62208, United States",38.5726503,-89.9874668
Target,"28201 Diehl Rd, Warrenville, IL 60555, United States",41.8005162,-88.1696904
Target,"12800 Illinois Rte 59, Plainfield, IL 60585, United States",41.6499071,-88.2060351
Target,"630 N LaSalle Dr, Chicago, IL 60654, United States",41.8933672,-87.6329227
Target,"17605 S Halsted St, Homewood, IL 60430, United States",41.5691191,-87.6337535
Target,"7300 W 191st St, Tinley Park, IL 60487, United States",41.5450357,-87.7961604
Target,"1 S State St, Chicago, IL 60603, United States",41.8817753,-87.627419
Target,"2241 Willow Rd, Glenview, IL 60025, United States",42.102081,-87.8136747
Target,"401 W Irving Park Rd, Wood Dale, IL 60191, United States",41.9675639,-87.992684
Target,"2901 S Cicero Ave, Cicero, IL 60804, United States",41.8396377,-87.7413101
Target,"1940 W 33rd St, Chicago, IL 60608, United States",41.8360519,-87.6741719
Target,"3100 IL-60, Mundelein, IL 60060, United States",42.2846342,-88.0446028
Target,"480 West Washington Street, East Peoria, IL 61611, United States",40.672476,-89.5835055
Target,"301 Veterans Pkwy, Normal, IL 61761, United States",40.5072395,-88.9579937
Target,"6150 W Touhy Ave, Niles, IL 60714, United States",42.0130171,-87.779869
Target,"175 W Army Trail Rd, Glendale Heights, IL 60139, United States",41.9371783,-88.0991993
Target,"3300 N Ashland Ave, Chicago, IL 60657, United States",41.9418701,-87.6695901
Target,"115 N Randall Rd, Batavia, IL 60510, United States",41.8523563,-88.342907
Target,"1129 Lake St, Oak Park, IL 60301, United States",41.8882523,-87.8037661
Target,"2555 Sycamore Rd, DeKalb, IL 60115, United States",41.9558357,-88.7251889
Target,"2656 N Elston Ave, Chicago, IL 60647, United States",41.9284806,-87.6850894
Target,"5001 N Big Hollow Rd, Peoria, IL 61615, United States",40.7479782,-89.6349487
Target,"1951 W Jefferson Ave, Naperville, IL 60540, United States",41.7712106,-88.2032012
Target,"2701 Plainfield Rd, Joliet, IL 60435, United States",41.5772082,-88.1536877
Target,"555 S Rand Rd, Lake Zurich, IL 60047, United States",42.1865613,-88.1042709
Target,"300 S Randall Rd, Elgin, IL 60123, United States",42.0258848,-88.3419963
Target,"601 S County Farm Rd, Wheaton, IL 60187, United States",41.8590238,-88.1392039
Target,"4955 Dempster St, Skokie, IL 60077, United States",42.0405318,-87.7511911
Target,"6101 N Keystone Ave Ste 200, Indianapolis, IN 46220, United States",39.8661157,-86.1196643
Target,"10202 Washington St, Indianapolis, IN 46229, United States",39.7771842,-85.9859253
Target,"4850 E Southport Rd, Indianapolis, IN 46237, United States",39.6681519,-86.0845445
Target,"10451 Indianapolis Blvd, Highland, IN 46322, United States",41.5239289,-87.4677175
Target,"6925 W 38th St, Indianapolis, IN 46254, United States",39.8212896,-86.2792954
Target,"1300 E 86th St Ste 35, Indianapolis, IN 46240, United States",39.9151344,-86.1390304
Target,"895 S State Rd 135, Greenwood, IN 46143, United States",39.6036157,-86.1570529
Target,"8005 Calumet Ave, Munster, IN 46321, United States",41.5675336,-87.5066583
Target,"10401 N Michigan Rd, Carmel, IN 46032, United States",39.9365559,-86.2320466
Target,"11750 Commercial Dr, Fishers, IN 46038, United States",39.9593453,-86.0098588
Target,"2661 E U.S. Hwy 30, Merrillville, IN 46410, United States",41.4691266,-87.3032947
Target,"2966 E 3rd St, Bloomington, IN 47401, United States",39.1617658,-86.4941269
Target,"2673 E Main St, Plainfield, IN 46168, United States",39.715792,-86.3552596
Target,"3630 South St, Lafayette, IN 47905, United States",40.4199332,-86.8474445
Target,"10209 E US Hwy 36, Avon, IN 46123, United States",39.7608175,-86.3422076
Target,"1600 E 151st St, Carmel, IN 46032, United States",40.0084485,-86.1290134
Target,"1125 Veterans Pkwy, Clarksville, IN 47129, United States",38.3278218,-85.7649945
Target,"2209 State St, New Albany, IN 47150, United States",38.3048072,-85.8416994
Target,"1865 N National Rd, Columbus, IN 47201, United States",39.2191123,-85.8846003
Target,"9885 Wicker Ave, St John, IN 46373, United States",41.4394162,-87.466898
Target,"155 E University Dr E, Granger, IN 46530, United States",41.7174213,-86.1761296
Target,"1037 S Reed Rd, Kokomo, IN 46902, United States",40.4749906,-86.1093285
Target,"6625 E Lloyd Expy, Evansville, IN 47715, United States",37.9755123,-87.4699934
Target,"2420 Laporte Ave, Valparaiso, IN 46383, United States",41.4665228,-87.0308806
Target,"3801 Coldwater Rd, Fort Wayne, IN 46805, United States",41.1115242,-85.1386991
Target,"300 W State St Ste 100, West Lafayette, IN 47906, United States",40.424218,-86.908145
Target,"4000 N First Ave, Evansville, IN 47710, United States",38.0154601,-87.5769671
Target,"3938 Midway Rd, Goshen, IN 46526, United States",41.6214765,-85.905056
Target,"1400 E Ireland Rd, South Bend, IN 46614, United States",41.6273845,-86.2290537
Target,"3601 N Barr St, Muncie, IN 47303, United States",40.2217579,-85.3807986
Target,"6119 Stellhorn Rd, Fort Wayne, IN 46815, United States",41.1224544,-85.0634465
Target,"1102 S Thomas Rd, Fort Wayne, IN 46804, United States",41.0762623,-85.2041376
Target,"4101 Towne Center Dr, Louisville, KY 40241, United States",38.2971229,-85.5574417
Target,"235 Calhoun St, Cincinnati, OH 45219, United States",39.1281715,-84.5164637
Target,"12975 Shelbyville Rd Ste 100, Louisville, KY 40243, United States",38.2465741,-85.5145516
Target,"3369 Princeton Rd, Hamilton, OH 45011, United States",39.3878194,-84.5046853
Target,"4370 Venture Dr, Peru, IL 61354, United States",41.3620601,-89.1293585
Target,"7100 S Cicero Ave, Chicago, IL 60629, United States",41.7631271,-87.7434226
Target.com,"225 Transfer Dr, Indianapolis, IN 46214, United States",39.768639,-86.296314
Target Grocery,"1102 S Thomas Rd, Fort Wayne, IN 46804, United States",41.0762623,-85.2041376
Target,"7300 W 191st St, Tinley Park, IL 60487, United States",41.5450357,-87.7961604
Target,"3000 W Deyoung St, Marion, IL 62959, United States",37.7490748,-88.9799713
Target,"15850 S 94th Ave, Orland Park, IL 60462, United States",41.6028313,-87.8505248
Target,"401 E Illinois St, Chicago, IL 60611, United States",41.8909049,-87.6173923
Target,"1 S State St, Chicago, IL 60603, United States",41.8817753,-87.627419
Target Grocery,"6101 N Keystone Ave Ste 200, Indianapolis, IN 46220, United States",39.8656431,-86.1193557
Target,"6422 N Sheridan Rd Unit A, Chicago, IL 60626, United States",41.9989821,-87.6609644
Target,"60 Yorktown Shopping Center, Lombard, IL 60148, United States",41.8449497,-88.0029767
Target,"4466 N Broadway, Chicago, IL 60640, United States",41.9633566,-87.6564605
Target,"6839 S Westnedge Ave, Portage, MI 49002, United States",42.2180157,-85.5883818
Target Girls,"2420 Laporte Ave, Valparaiso, IN 46383, United States",41.4668814,-87.0308161
Target,"7601 Kingery Hwy, Willowbrook, IL 60527, United States",41.7494511,-87.9429774
Target,"9040 Colerain Ave, Cincinnati, OH 45251, United States",39.2357197,-84.5886745
Target,"2030 Hammond Square Dr, Hammond, LA 70403, United States",30.4811437,-90.4617948
Target,"1940 W 33rd St, Chicago, IL 60608, United States",41.8360519,-87.6741719
Target Grocery,"1300 E 86th St Ste 35, Indianapolis, IN 46240, United States",39.9154049,-86.1395807
Target Furniture,"450 Silhavy Rd, Valparaiso, IN 46383, United States",41.4664266,-87.0313532
Target Grocery,"6925 W 38th St, Indianapolis, IN 46254, United States",39.8219157,-86.2790164
Target,"2656 N Elston Ave, Chicago, IL 60647, United States",41.9284806,-87.6850894
Target,"8680 Beechmont Ave, Cincinnati, OH 45255, United States",39.0738063,-84.3133325
Target,"2024 N Rock Rd, Derby, KS 67037, United States",37.5683987,-97.2412189
Target,"10800 E 21st St N, Wichita, KS 67206, United States",37.724525,-97.2123712
Target,"20255 W 154th St, Olathe, KS 66062, United States",38.8485238,-94.8201498
Target,"7575 Maple St, Wichita, KS 67209, United States",37.6776535,-97.4318823
Target,"2727 N Maize Rd, Wichita, KS 67205, United States",37.7325155,-97.4653923
Target,"11501 W 97th St, Overland Park, KS 66214, United States",38.9507209,-94.7195414
Target,"8101 W 151st St, Overland Park, KS 66223, United States",38.8531287,-94.6826625
Target,"15345 W 119th St, Olathe, KS 66062, United States",38.9099463,-94.7643047
Target,"12200 Blue Valley Pkwy, Overland Park, KS 66213, United States",38.9076847,-94.6750703
Target,"10900 Stadium Dr, Kansas City, KS 66111, United States",39.1276831,-94.8313298
Target,"15700 Shawnee Mission Pkwy, Shawnee, KS 66217, United States",39.0106649,-94.7681878
Target,"6100 Broadmoor St, Mission, KS 66202, United States",39.0180913,-94.6647337
Target,"2120 SW Wanamaker Rd, Topeka, KS 66614, United States",39.0281681,-95.7592522
Target,"3201 S Iowa St, Lawrence, KS 66046, United States",38.9253598,-95.2636018
Target,"800 Commons Pl, Manhattan, KS 66503, United States",39.1713762,-96.6058713
Target,"2939 Market Pl, Salina, KS 67401, United States",38.7842674,-97.6093063
Target,"1201 W 136th St, Kansas City, MO 64145, United States",38.8796068,-94.6067881
Target,"8509 State Line Rd, Kansas City, MO 64114, United States",38.9717354,-94.6074334
Target,"2401 E Kansas Ave, Garden City, KS 67846, United States",37.9801084,-100.8432066
Target Grocery,"10900 Stadium Dr, Kansas City, KS 66111, United States",39.1272768,-94.8313715
Target Grocery,"20255 W 154th St, Olathe, KS 66062, United States",38.8485238,-94.8201498
Target,"8420 N Madison Ave, Kansas City, MO 64155, United States",39.2488329,-94.5958193
Target Grocery,"2120 SW Wanamaker Rd, Topeka, KS 66614, United States",39.0275215,-95.7604998
Target,"4375 N Chouteau Trafficway, Kansas City, MO 64117, United States",39.1737405,-94.5326546
Target,"9040 N Skyview Ave, Kansas City, MO 64154, United States",39.2574693,-94.6553716
Target Grocery,"800 Commons Pl, Manhattan, KS 66503, United States",39.1713762,-96.6058713
Target,"9220 NE Barry Rd, Kansas City, MO 64157, United States",39.2479724,-94.4635622
Target Grocery,"11501 W 97th St, Overland Park, KS 66214, United States",38.9507209,-94.7195414
Target Grocery,"2727 N Maize Rd, Wichita, KS 67205, United States",37.7325155,-97.4653923
Target Grocery,"7575 Maple St, Wichita, KS 67209, United States",37.6776535,-97.4318823
Target,"3151 E 7th St, Joplin, MO 64801, United States",37.085115,-94.4741295
Target Grocery,"3201 Iowa St, Lawrence, KS 66046, United States",38.9255457,-95.2635551
Target Grocery,"8509 State Line Rd, Kansas City, MO 64114, United States",38.9717354,-94.6074334
Target Grocery,"6100 Broadmoor St, Mission, KS 66202, United States",39.0179859,-94.6646265
Target Mobile,"10900 Stadium Dr, Kansas City, KS 66111, United States",39.1275583,-94.831402
Target Grocery,"1201 W 136th St, Kansas City, MO 64145, United States",38.8796068,-94.6067881
Target,"5201 N Belt Hwy Suite H, St Joseph, MO 64506, United States",39.8152901,-94.8115049
Target,"17810 East 39th St S, Independence, MO 64055, United States",39.0511202,-94.369521
Target Mobile,"10800 E 21st St N, Wichita, KS 67206, United States",37.7244267,-97.2125599
Target Mobile,"15345 W 119th St, Olathe, KS 66062, United States",38.9100201,-94.7647811
Target,"1850 NW Chipman Rd, Lee's Summit, MO 64081, United States",38.9316746,-94.4095286
Target Mobile,"2120 SW Wanamaker Rd, Topeka, KS 66614, United States",39.0281715,-95.7596399
Target Mobile,"2727 N Maize Rd, Wichita, KS 67205, United States",37.7330981,-97.4654594
Target Mobile,"3201 Iowa St, Lawrence, KS 66046, United States",38.9257013,-95.2635547
Target Mobile,"11501 W 97th St, Overland Park, KS 66214, United States",38.9503453,-94.7189211
Target Mobile,"800 Commons Pl, Manhattan, KS 66503, United States",39.1713454,-96.6056586
Target Mobile,"8509 State Line Rd, Kansas City, MO 64114, United States",38.9716244,-94.6075385
Target,"1040 NE Coronado Dr, Blue Springs, MO 64014, United States",39.0234008,-94.2482362
Target Grocery,"8420 N Madison Ave, Kansas City, MO 64155, United States",39.2488329,-94.5958193
Target Grocery,"9220 NE Barry Rd, Kansas City, MO 64157, United States",39.2479724,-94.4635622
Target Grocery,"9040 N Skyview Ave, Kansas City, MO 64154, United States",39.2573007,-94.6552367
Target Optical,"15345 W 119th St, Olathe, KS 66062, United States",38.9102642,-94.7644835
Target Optical,"10800 E 21st St N, Wichita, KS 67206, United States",37.7244545,-97.2120953
Target,"131 W Reynolds Rd, Lexington, KY 40503, United States",37.9923999,-84.5253366
Target,"500 S Upper St STE 110, Lexington, KY 40508, United States",38.0431268,-84.5034857
Target,"1100 Hansel Ave, Florence, KY 41042, United States",39.0196037,-84.6336593
Target,"160 Pavilion Pkwy, Newport, KY 41071, United States",39.0883674,-84.4778594
Target,"7311 Jefferson Blvd, Louisville, KY 40219, United States",38.1460158,-85.6731897
Target,"1940 Pavilion Way, Lexington, KY 40509, United States",38.0224466,-84.4148045
Target,"4101 Towne Center Dr, Louisville, KY 40241, United States",38.2971229,-85.5574417
Target,"12975 Shelbyville Rd Ste 100, Louisville, KY 40243, United States",38.2465741,-85.5145516
Target,"1631 Ring Rd, Elizabethtown, KY 42701, United States",37.7288542,-85.879814
Target,"3600 Mall Rd, Louisville, KY 40218, United States",38.1982926,-85.671259
Target,"160 American Ave, Bowling Green, KY 42104, United States",36.9489775,-86.4356534
Target,"5151 Frederica St, Owensboro, KY 42301, United States",37.7173941,-87.1225442
Target,"4174 Westport Rd, Louisville, KY 40207, United States",38.2581363,-85.6426842
Target,"4640 Taylorsville Rd, Louisville, KY 40220, United States",38.2152241,-85.5951325
Target Grocery,"12975 Shelbyville Rd Ste 100, Louisville, KY 40243, United States",38.2465741,-85.5145516
Target Grocery,"160 Pavilion Pkwy, Newport, KY 41071, United States",39.0880684,-84.4781291
Target Grocery,"1100 Hansel Ave, Florence, KY 41042, United States",39.0202538,-84.6337741
Target,"1125 Veterans Pkwy, Clarksville, IN 47129, United States",38.3278218,-85.7649945
Target Grocery,"4174 Westport Rd, Louisville, KY 40207, United States",38.2581363,-85.6426842
Target,"6150 Glenway Ave, Cincinnati, OH 45211, United States",39.1451432,-84.6201131
Target,"2823 Wilma Rudolph Blvd, Clarksville, TN 37040, United States",36.5863506,-87.292448
Target Grocery,"131 W Reynolds Rd, Lexington, KY 40503, United States",37.992672,-84.5253318
Target,"6625 E Lloyd Expy, Evansville, IN 47715, United States",37.9755123,-87.4699934
Target,"8680 Beechmont Ave, Cincinnati, OH 45255, United States",39.0738063,-84.3133325
Target,"2209 State St, New Albany, IN 47150, United States",38.3048072,-85.8416994
Target Mobile,"131 W Reynolds Rd, Lexington, KY 40503, United States",37.9926477,-84.5255484
Target Mobile,"160 Pavilion Pkwy, Newport, KY 41071, United States",39.0882328,-84.4781544
Target Mobile,"7311 Jefferson Blvd, Louisville, KY 40219, United States",38.146141,-85.6731178
Target Mobile,"5151 Frederica St, Owensboro, KY 42301, United States",37.7170323,-87.1221587
Target Mobile,"1940 Pavilion Way, Lexington, KY 40509, United States",38.0245835,-84.4162388
Target Mobile,"4101 Towne Center Dr, Louisville, KY 40241, United States",38.2971657,-85.5583082
Target,"2070 Thundering Herd Dr, Barboursville, WV 25504, United States",38.4206766,-82.2848061
Target,"900 E Kemper Rd, Springdale, OH 45246, United States",39.2884612,-84.4543503
Target,"5405 Washington Pike, Knoxville, TN 37918, United States",36.0370854,-83.8885914
Target Optical,"4101 Towne Center Dr, Louisville, KY 40241, United States",38.2972435,-85.5579525
Target Optical,"1100 Hansel Ave, Florence, KY 41042, United States",39.0197254,-84.6339252
Target Optical,"4174 Westport Rd, Louisville, KY 40207, United States",38.2584533,-85.6428582
Target,"3064 Columbia Ave, Franklin, TN 37064, United States",35.892735,-86.8811476
Target,"3225 Louisiana Ave, Lafayette, LA 70501, United States",30.265523,-91.9965876
Target,"69320 LA-21, Covington, LA 70433, United States",30.4423496,-90.1399919
Target,"2735 Beene Blvd, Bossier City, LA 71111, United States",32.5586419,-93.7065473
Target,"4313 Ambassador Caffery Pkwy, Lafayette, LA 70508, United States",30.1604175,-92.0492477
Target,"1401 W Esplanade Ave Ste 200, Kenner, LA 70065, United States",30.0167341,-90.2477654
Target,"7110 Youree Dr, Shreveport, LA 71105, United States",32.4397413,-93.7203453
Target,"1720 W Prien Lake Rd, Lake Charles, LA 70601, United States",30.2002484,-93.2465775
Target,"4103 Pecanland Mall Dr, Monroe, LA 71203, United States",32.5003396,-92.0703498
Target,"2001 Millerville Rd, Baton Rouge, LA 70816, United States",30.4409809,-91.0220489
Target,"2030 Hammond Square Dr, Hammond, LA 70403, United States",30.4811437,-90.4617948
Target,"2206 Memorial Dr, Alexandria, LA 71301, United States",31.2803475,-92.4582511
Target,"1727 Martin Luther King Blvd, Houma, LA 70360, United States",29.6106378,-90.7572915
Target,"4500 Veterans Memorial Blvd, Metairie, LA 70006, United States",30.0037112,-90.1840481
Target,"1731 Manhattan Blvd, Harvey, LA 70058, United States",29.8899845,-90.0534091
Target,"6885 Siegen Ln, Baton Rouge, LA 70809, United States",30.3844989,-91.0605162
Target Grocery,"1401 W Esplanade Ave Suite 200, Kenner, LA 70065, United States",30.0165189,-90.2480578
Target Grocery,"2030 Hammond Square Dr, Hammond, LA 70403, United States",30.4807283,-90.4617997
Target Grocery,"1731 Manhattan Blvd, Harvey, LA 70058, United States",29.8903358,-90.053388
Target,"3100 FM 365 Ste 90, Port Arthur, TX 77642, United States",29.9462425,-93.9889589
Target Grocery,"69320 LA-21, Covington, LA 70433, United States",30.4423496,-90.1399919
Target Mobile,"3225 Louisiana Ave, Lafayette, LA 70501, United States",30.2656567,-91.9962908
Target Grocery,"4313 Ambassador Caffery Pkwy, Lafayette, LA 70508, United States",30.1593711,-92.0495734
Target Grocery,"2001 Millerville Rd, Baton Rouge, LA 70816, United States",30.4407843,-91.0218175
Target Electronics,"7110 Youree Dr, Shreveport, LA 71105, United States",32.4397413,-93.7203453
Target,"5850 Eastex Fwy, Beaumont, TX 77708, United States",30.1265097,-94.152816
Target,"3867 Promenade Pkwy, D'Iberville, MS 39540, United States",30.4552154,-88.899559
Target,"102 Richmond Ranch Rd, Texarkana, TX 75503, United States",33.4578106,-94.0919062
Target Mobile,"2001 Millerville Rd, Baton Rouge, LA 70816, United States",30.440869,-91.0219305
Target,"170 Promenade Blvd, Flowood, MS 39232, United States",32.3435065,-90.0613934
Target,"255 Marina Bay Dr, Clear Lake Shores, TX 77565, United States",29.5387816,-95.0229595
Target,"6143 US-98 Ste 80, Hattiesburg, MS 39402, United States",31.3239231,-89.3847646
Target,"3092 N Eastman Rd Ste 100, Longview, TX 75605, United States",32.5483856,-94.7244262
Target,"1698 US-98, Daphne, AL 36526, United States",30.6028747,-87.8959317
Target Mobile,"4313 Ambassador Caffery Pkwy, Lafayette, LA 70508, United States",30.160785,-92.0490661
Target Mobile,"4500 Veterans Memorial Blvd, Metairie, LA 70006, United States",30.0037179,-90.1844075
Target Mobile,"4103 Pecanland Mall Dr, Monroe, LA 71203, United States",32.5000441,-92.069914
Target Mobile,"1401 W Esplanade Ave #200, Kenner, LA 70065, United States",30.016579,-90.2478898
Target Mobile,"1720 W Prien Lake Rd, Lake Charles, LA 70601, United States",30.2003768,-93.2462185
Target,"3150 Joe Treadwell Dr, Mobile, AL 36606, United States",30.6712327,-88.1203096
Target,"4200 S Medford Dr, Lufkin, TX 75901, United States",31.313952,-94.719831
Target Mobile,"7110 Youree Dr, Shreveport, LA 71105, United States",32.4397518,-93.7204867
Target,"6365 I 55 N, Jackson, MS 39213, United States",32.3988113,-90.148254
Target Mobile,"2206 Memorial Dr, Alexandria, LA 71301, United States",31.280441,-92.4582981
Target Mobile,"6885 Siegen Ln, Baton Rouge, LA 70809, United States",30.3849389,-91.060932
Target Photo Center,"2030 Hammond Square Dr, Hammond, LA 70403, United States",30.4811383,-90.4618095
Target Grocery,"5850 Eastex Fwy, Beaumont, TX 77708, United States",30.1265097,-94.152816
Target Optical,"4313 Ambassador Caffery Pkwy, Lafayette, LA 70508, United States",30.160601,-92.0490214
Target,"2120 Louisiana Blvd NE, Albuquerque, NM 87110, United States",35.1010174,-106.5676145
Target Optical,"4500 Veterans Memorial Blvd, Metairie, LA 70006, United States",30.0033206,-90.1843268
Target Optical,"6885 Siegen Ln, Baton Rouge, LA 70809, United States",30.3843143,-91.0604981
Target Optical,"7110 Youree Dr, Shreveport, LA 71105, United States",32.4396627,-93.7204726
Target,"471 Salem St, Medford, MA 02155, United States",42.4228862,-71.0886822
Target,"1 Mystic View Rd, Everett, MA 02149, United States",42.3988579,-71.0720067
Target,"101 Commerce Way, Woburn, MA 01801, United States",42.5187484,-71.1347939
Target,"34 Cambridge St STE 145, Burlington, MA 01803, United States",42.484068,-71.1857561
Target,"36 Furlong Dr, Revere, MA 02151, United States",42.4004098,-71.000188
Target,"564 Massachusetts Ave, Cambridge, MA 02139, United States",42.3644478,-71.1026044
Target,"41 Robert Dr, South Easton, MA 02375, United States",42.0276823,-71.1435519
Target,"180 Somerville Ave, Somerville, MA 02143, United States",42.3764041,-71.0901677
Target,"400 Lynn Fells Pkwy, Saugus, MA 01906, United States",42.4819116,-71.0243331
Target,"250 Fortune Blvd, Milford, MA 01757, United States",42.1604892,-71.4979789
Target,"605 Boston Post Rd E, Marlborough, MA 01752, United States",42.3482554,-71.5054394
Target,"210 Ballardvale St, Wilmington, MA 01887, United States",42.5896895,-71.1599691
Target,"822 Somerville Ave, Cambridge, MA 02140, United States",42.3884085,-71.1184143
Target,"240 Independence Way, Danvers, MA 01923, United States",42.5531715,-70.9377758
Target,"1205 S Washington St, North Attleborough, MA 02760, United States",41.9404021,-71.3519373
Target,"1 Hawes Wy, Stoughton, MA 02072, United States",42.1522517,-71.0719651
Target,"227 Highland Ave, Salem, MA 01970, United States",42.5033607,-70.9194259
Target,"113 Main St, Stoneham, MA 02180, United States",42.4950351,-71.103427
Target,"860 Commonwealth Avenue, Boston, MA 02215, United States",42.3505926,-71.1140487
Target,"50 Holyoke St, Holyoke, MA 01040, United States",42.167693,-72.6419953
Target,"86 Orchard Hill Park Dr, Leominster, MA 01453, United States",42.5277447,-71.7138682
Target,"423 Donald Lynch Blvd, Marlborough, MA 01752, United States",42.3600734,-71.6070737
Target,"1167 Washington St, Hanover, MA 02339, United States",42.1369116,-70.838938
Target,"181 Plain St, Lowell, MA 01852, United States",42.6237874,-71.3176729
Target,"91 Taunton St, Plainville, MA 02762, United States",42.0340977,-71.3107152
Target,"67 Pleasant Valley St, Methuen, MA 01844, United States",42.7401349,-71.1606333
Target,"330 Turnpike Rd, Westborough, MA 01581, United States",42.2803184,-71.6559105
Target,"221 University Ave, Westwood, MA 02090, United States",42.2049108,-71.155806
Target,"101 Independence Mall Way, Kingston, MA 02364, United States",41.971612,-70.7174178
Target,"250 Granite St Ste 121, Braintree, MA 02184, United States",42.2222085,-71.0232187
Target,"7 Allstate Rd, Dorchester, MA 02125, United States",42.3292427,-71.063034
Target,"1341 Boylston St, Boston, MA 02215, United States",42.3446572,-71.0995726
Target,"400 Cochituate Rd, Framingham, MA 01701, United States",42.3055767,-71.3981707
Target,"289 Hancock St, Quincy, MA 02171, United States",42.2762396,-71.0293292
Target,"70 Worcester-Providence Turnpike #100, Millbury, MA 01527, United States",42.1936259,-71.7746663
Target,"35 Computer Dr, Haverhill, MA 01832, United States",42.78783,-71.1153288
Target,"385 Centre Ave, Abington, MA 02351, United States",42.1103365,-70.9270718
Target,"550 Arsenal St, Watertown, MA 02472, United States",42.3643531,-71.1569595
Target,"500 Geneva Ave, Dorchester, MA 02122, United States",42.2988962,-71.0622758
Target,"81 Taunton Depot Dr, Taunton, MA 02780, United States",41.877996,-71.0692764
Target,"100 Cambridge St Ste 2, Boston, MA 02114, United States",42.3609879,-71.0626207
Target,"367 Russell St, Hadley, MA 01035, United States",42.3572616,-72.5466537
Target,"79 Commerce Way, Seekonk, MA 02771, United States",41.7961196,-71.3205032
Target,"579 Grand Army of the Republic Hwy Ste 5, Swansea, MA 02777, United States",41.7492141,-71.2070312
Target,"655 Cheshire Rd, Lanesborough, MA 01237, United States",42.4945726,-73.206855
Target,"2421 Cranberry Hwy Ste 110, Wareham, MA 02571, United States",41.7733969,-70.74637
Target,"793 Iyannough Rd, Hyannis, MA 02601, United States",41.6670869,-70.294882
Target,"529 Lincoln St, Worcester, MA 01605, United States",42.2920242,-71.7742956
Target,"4165 Washington St, Roslindale, MA 02131, United States",42.2883015,-71.126754
Target,"479 State Rd, Dartmouth, MA 02747, United States",41.6370735,-71.0027694
Target Grocery,"101 Commerce Way, Woburn, MA 01801, United States",42.5186941,-71.1348252
Target Grocery,"250 Granite St Ste 121, Braintree, MA 02184, United States",42.2222085,-71.0232187
Target Grocery,"7 Allstate Rd, Dorchester, MA 02125, United States",42.329239,-71.0631716
Target,"203 S Broadway, Salem, NH 03079, United States",42.7647987,-71.2155859
Target Grocery,"793 Iyannough Rd, Hyannis, MA 02601, United States",41.6673481,-70.294884
Target Grocery,"4165 Washington St, Roslindale, MA 02131, United States",42.2883162,-71.1266531
Target Holyoke Mall,"50 Holyoke St, Holyoke, MA 01040, United States",42.167979,-72.6420908
Target Grocery,"479 State Rd, North Dartmouth, MA 02747, United States",41.6390247,-71.0024504
Target,"310 Daniel Webster Hwy, Nashua, NH 03060, United States",42.7026397,-71.4377196
Target Grocery,"1 Hawes Wy, Stoughton, MA 02072, United States",42.1520749,-71.0729905
Target,"7501 Baltimore Ave STE 1, College Park, MD 20740, United States",38.9824509,-76.9371325
Target,"6100 Greenbelt Rd, Greenbelt, MD 20770, United States",38.9987863,-76.9066234
Target,"6111 Dobbin Rd, Columbia, MD 21045, United States",39.1974766,-76.8131681
Target,"10500 Campus Way S, Upper Marlboro, MD 20774, United States",38.8962324,-76.8272268
Target,"3343 Corridor Marketplace, Laurel, MD 20724, United States",39.0969863,-76.8098428
Target,"3500 East-West Hwy Ste 1200, Hyattsville, MD 20782, United States",38.9685305,-76.9551242
Target,"11160 Veirs Mill Rd, Silver Spring, MD 20902, United States",39.0367469,-77.0567671
Target,"12000 Cherry Hill Rd, Silver Spring, MD 20904, United States",39.0515481,-76.9567446
Target,"4390 Montgomery Rd, Ellicott City, MD 21043, United States",39.2501239,-76.817438
Target,"5700 Bou Ave, Rockville, MD 20852, United States",39.0560695,-77.1148974
Target,"1238 Putty Hill Ave, Towson, MD 21286, United States",39.3947773,-76.5813861
Target,"6163 Oxon Hill Rd, Oxon Hill, MD 20745, United States",38.8060389,-76.9832077
Target,"7951 Nolpark Ct, Glen Burnie, MD 21061, United States",39.1326736,-76.6338706
Target,"20908 Frederick Rd, Germantown, MD 20876, United States",39.1983778,-77.2489569
Target,"1737 Reisterstown Rd, Pikesville, MD 21208, United States",39.3852505,-76.731127
Target,"5230 Campbell Blvd, Nottingham, MD 21236, United States",39.3711591,-76.4514074
Target,"45155 First Colony Way, California, MD 20619, United States",38.2976573,-76.5138973
Target,"6717 Ritchie Hwy, Glen Burnie, MD 21061, United States",39.1902658,-76.6100414
Target,"1025 Middleton Rd, Aberdeen, MD 21001, United States",39.5209236,-76.1783752
Target,"6831 Wisconsin Ave, Bethesda, MD 20815, United States",38.9782829,-77.0906199
Target,"580 Marketplace Dr, Bel Air, MD 21014, United States",39.5254554,-76.3504943
Target,"1330 Martin Blvd, Middle River, MD 21220, United States",39.3351015,-76.4482757
Target,"3101 Donnell Dr, District Heights, MD 20747, United States",38.8489574,-76.8870638
Target,"2384 Brandermill Blvd, Gambrills, MD 21054, United States",39.0344924,-76.6841888
Target,"3559 Boston St, Baltimore, MD 21224, United States",39.2750701,-76.5664443
Target,"10401 Martin Luther King Jr Hwy, Bowie, MD 20720, United States",38.9534003,-76.825064
Target,"11200 Reisterstown Rd, Owings Mills, MD 21117, United States",39.4334348,-76.799309
Target,"4600 Mitchellville Rd, Bowie, MD 20716, United States",38.9525732,-76.7230101
Target,"15922 Crain Hwy SE, Brandywine, MD 20613, United States",38.6725267,-76.8726366
Target,"3300 Western Pkwy, Waldorf, MD 20603, United States",38.6208216,-76.9223519
Target,"25 Grand Corner Ave, Gaithersburg, MD 20878, United States",39.1190663,-77.2027381
Target,"9901 York Rd, Cockeysville, MD 21030, United States",39.4621967,-76.6335096
Target,"1911 Towne Centre Blvd, Annapolis, MD 21401, United States",38.9805952,-76.540675
Target,"403 Constant Friendship Blvd, Abingdon, MD 21009, United States",39.4597357,-76.3165092
Target,"28539 Marlboro Ave, Easton, MD 21601, United States",38.7818476,-76.0870499
Target,"125 E N Pointe Dr, Salisbury, MD 21804, United States",38.4153992,-75.559875
Target,"5437 Urbana Pike, Frederick, MD 21704, United States",39.382408,-77.3977345
Target,"200 Malcolm Dr, Westminster, MD 21157, United States",39.5669177,-76.9745896
Target,"60 Shining Willow Way, La Plata, MD 20646, United States",38.541151,-76.98175
Target,"17213 Cole Rd, Hagerstown, MD 21740, United States",39.6198209,-77.7732799
Target Grocery,"1737 Reisterstown Rd, Pikesville, MD 21208, United States",39.3852505,-76.731127
Target Grocery,"3500 East-West Hwy Suite 1200, Hyattsville, MD 20782, United States",38.9685305,-76.9551242
Target Grocery,"5700 Bou Ave, Rockville, MD 20852, United States",39.0561697,-77.1147704
Target Grocery,"3559 Boston St, Baltimore, MD 21224, United States",39.2748051,-76.5663428
Target,"7828 Georgia Ave NW, Washington, DC 20012, United States",38.9844847,-77.0269171
Target Grocery,"1417 S Main Chapel Way, Gambrills, MD 21054, United States",39.0347465,-76.6840003
Target,"3100 14th St NW Ste 201, Washington, DC 20010, United States",38.9293123,-77.032924
Target,"1515 New York Ave NE, Washington, DC 20002, United States",38.9163725,-76.98236
Target,"3101 Richmond Hwy, Alexandria, VA 22305, United States",38.8340796,-77.0494595
Target,"3505 Connecticut Ave NW, Washington, DC 20008, United States",38.9358271,-77.0579951
Target Grocery,"5437 Urbana Pike, Frederick, MD 21704, United States",39.3821091,-77.3975521
Target,"4500 Wisconsin Ave NW, Washington, DC 20016, United States",38.9487791,-77.0808194
Target,"5115 Leesburg Pike, Falls Church, VA 22041, United States",38.8444863,-77.1187632
Target,"6600 Richmond Hwy, Alexandria, VA 22306, United States",38.775917,-77.0824723
Target,"6100 Arlington Blvd, Falls Church, VA 22044, United States",38.8682994,-77.1423268
Target Grocery,"4390 Montgomery Rd, Ellicott City, MD 21043, United States",39.2501963,-76.8174805
Target,"500 S Washington St, Falls Church, VA 22046, United States",38.8795632,-77.1776412
Target,"740 N Glebe Rd, Arlington, VA 22203, United States",38.8795155,-77.1135957
Target Grocery,"10500 Campus Way S, Upper Marlboro, MD 20774, United States",38.8962324,-76.8272268
Target Grocery,"6111 Dobbin Rd, Columbia, MD 21045, United States",39.197664,-76.8132967
Target,"200 Running Hill Rd, South Portland, ME 04106, United States",43.6337902,-70.3482584
Target,"119 Crossing Way, Augusta, ME 04330, United States",44.3120944,-69.8057331
Target,"60 Longview Dr, Bangor, ME 04401, United States",44.8421211,-68.7420044
Target,"125 Topsham Fair Mall Rd, Topsham, ME 04086, United States",43.933644,-69.9856428
Target,"430 Mariner Wy, Biddeford, ME 04005, United States",43.4739059,-70.514898
Target,"603 Center St, Auburn, ME 04210, United States",44.1238636,-70.2229141
Target,"11 Andrews Rd, Somersworth, NH 03878, United States",43.2346489,-70.8850155
Target Grocery,"60 Longview Dr, Bangor, ME 04401, United States",44.8415806,-68.7425244
Target Grocery,"125 Topsham Fair Mall Rd, Topsham, ME 04086, United States",43.933644,-69.9856428
Target,"1450 Greenland Rd Ste 1, Greenland, NH 03840, United States",43.0495205,-70.8184988
Target Mobile,"200 Running Hill Rd, South Portland, ME 04106, United States",43.6335457,-70.3480286
Target Grocery,"11 Andrews Rd, Somersworth, NH 03878, United States",43.2346489,-70.8850155
Target Mobile,"119 Crossing Way, Augusta, ME 04330, United States",44.3121379,-69.8059305
Target,"41 Robert Dr, South Easton, MA 02375, United States",42.0276823,-71.1435519
Target,"620 George Washington Hwy, Lincoln, RI 02865, United States",41.9379081,-71.4786071
Target,"4611 Maine Ave SE, Rochester, MN 55904, United States",43.9544007,-92.4656689
Target,"210 Ballardvale St, Wilmington, MA 01887, United States",42.5896895,-71.1599691
Target,"655 Cheshire Rd, Lanesborough, MA 01237, United States",42.4945726,-73.206855
Target Photo Center,"60 Longview Dr, Bangor, ME 04401, United States",44.8423434,-68.7417353
Target Grocery,"4611 Maine Ave SE, Rochester, MN 55904, United States",43.9544007,-92.4656689
Target,"155 Dorset St, South Burlington, VT 05403, United States",44.4657829,-73.1825039
Target,"3827 Marketplace Dr NW, Rochester, MN 55901, United States",44.0624524,-92.5033946
Target,"160 Pavilion Pkwy, Newport, KY 41071, United States",39.0883674,-84.4778594
Target,"4900 E Main St, Farmington, NM 87402, United States",36.7691454,-108.1478699
Target,"5350 W Main St, Kalamazoo, MI 49009, United States",42.298535,-85.6553681
Target,"235 Robert C Daniel Jr Pkwy, Augusta, GA 30909, United States",33.4904972,-82.0817375
Target,"9800 SE Washington St, Portland, OR 97216, United States",45.5156273,-122.5619134
Target,"9401 NE Cascades Pkwy, Portland, OR 97220, United States",45.5770757,-122.5650609
Target,"2800 Meadowbrook Mall, Bridgeport, WV 26330, United States",39.3112286,-80.2737673
Target,"605 N Stephanie St, Henderson, NV 89014, United States",36.064745,-115.0482672
Target,"551 S Hover St, Longmont, CO 80501, United States",40.1534505,-105.1343014
Target,"1076 Jackson Crossing, Jackson, MI 49202, United States",42.2667458,-84.4263884
Target,"5057 Harvey St, Muskegon, MI 49444, United States",43.1608508,-86.2092613
Target,"5455 Clyde Park Ave SW, Wyoming, MI 49509, United States",42.8649978,-85.6861648
Target,"3456 W Shore Dr, Holland, MI 49424, United States",42.8315125,-86.0913432
Target,"201 E Grand River Ave, East Lansing, MI 48823, United States",42.7350682,-84.4822379
Target,"4890 Marsh Rd, Okemos, MI 48864, United States",42.7245706,-84.4128347
Target,"1925 Marketplace Dr SE, Caledonia, MI 49316, United States",42.8460569,-85.6155589
Target,"6839 S Westnedge Ave, Portage, MI 49002, United States",42.2180157,-85.5883818
Target,"5120 28th St SE, Grand Rapids, MI 49512, United States",42.9078294,-85.5414253
Target,"3248 Alpine Ave NW, Walker, MI 49544, United States",43.0223245,-85.686939
Target,"3130 W South Airport Rd W, Traverse City, MI 49684, United States",44.7258148,-85.6374687
Target,"500 E Edgewood Blvd, Lansing, MI 48911, United States",42.6632047,-84.5430229
Target,"5609 W Saginaw Hwy, Lansing, MI 48917, United States",42.7383041,-84.6287994
Target,"4097 E Blue Grass Rd, Mt Pleasant, MI 48858, United States",43.5768499,-84.7656649
Target,"3130 44th St SW, Grandville, MI 49418, United States",42.8816611,-85.7402248
Target,"5350 W Main St, Kalamazoo, MI 49009, United States",42.298535,-85.6553681
Target,"5700 Beckley Rd, Battle Creek, MI 49015, United States",42.2601018,-85.1847756
Target,"10401 N Michigan Rd, Carmel, IN 46032, United States",39.9365559,-86.2320466
Target,"6820 Eastman Ave, Midland, MI 48642, United States",43.6587583,-84.2412652
Target,"47330 Michigan Ave, Canton, MI 48188, United States",42.2697683,-83.5031617
Target Grocery,"4890 Marsh Rd, Okemos, MI 48864, United States",42.7245706,-84.4128347
Target Grocery,"1076 Jackson Crossing, Jackson, MI 49202, United States",42.2667458,-84.4263884
Target,"2000 W Waters Rd, Ann Arbor, MI 48103, United States",42.2437782,-83.7698716
Target,"15901 Ford Rd, Dearborn, MI 48126, United States",42.3278293,-83.1995082
Target,"2772 Tittabawassee Rd, Saginaw, MI 48604, United States",43.4831824,-83.9709536
Target,"20100 Haggerty Rd, Livonia, MI 48152, United States",42.4342913,-83.4306694
Target,"8043 Challis Rd, Brighton, MI 48116, United States",42.5452514,-83.7927392
Target,"30020 Grand River Ave, Farmington Hills, MI 48336, United States",42.4523745,-83.3440389
Target,"30333 Southfield Rd, Southfield, MI 48076, United States",42.5133935,-83.2255048
Target,"3515 Miller Rd, Flint, MI 48507, United States",42.9835044,-83.7487001
Target,"43670 Ford Rd, Canton, MI 48187, United States",42.3231575,-83.4708567
Target,"3255 Owen Rd, Fenton, MI 48430, United States",42.7872161,-83.7371433
Target,"26650 Ford Rd, Dearborn Heights, MI 48127, United States",42.328455,-83.302238
Target,"23555 Allen Rd, Woodhaven, MI 48183, United States",42.1372882,-83.2250028
Target,"3100 Fairlane Dr, Allen Park, MI 48101, United States",42.2850984,-83.2073108
Target,"27100 Wixom Rd, Novi, MI 48374, United States",42.4877153,-83.534171
Target,"28800 Dequindre Rd, Warren, MI 48092, United States",42.5042477,-83.0827762
Target,"3749 Carpenter Rd, Ypsilanti, MI 48197, United States",42.2359068,-83.676562
Target,"10025 E Highland Rd, Howell, MI 48843, United States",42.6357242,-83.7567662
Target,"1301 Coolidge Hwy, Troy, MI 48084, United States",42.5451436,-83.1902035
Target,"2400 S Telegraph Rd, Bloomfield Hills, MI 48302, United States",42.603593,-83.2939101
Target,"32001 John R Rd, Madison Heights, MI 48071, United States",42.5283432,-83.1081466
Target,"3250 US-41, Marquette, MI 49855, United States",46.5516618,-87.4599271
Target,"231 S State St, Ann Arbor, MI 48104, United States",42.2795478,-83.7406883
Target,"35401 Warren Rd, Westland, MI 48185, United States",42.3369533,-83.3907906
Target,"495 Haggerty Hwy, Walled Lake, MI 48390, United States",42.5340785,-83.4418444
Target,"2887 S Rochester Rd, Rochester Hills, MI 48307, United States",42.6373893,-83.129214
Target,"14099 Pardee Rd, Taylor, MI 48180, United States",42.2036324,-83.255786
Target,"650 Brown Rd, Auburn Hills, MI 48326, United States",42.706087,-83.2917253
Target,"8200 26 Mile Rd, Shelby Twp, MI 48316, United States",42.7111129,-83.0327606
Target,"29451 Plymouth Rd, Livonia, MI 48150, United States",42.366326,-83.334533
Target,"33860 S Gratiot Ave, Clinton Twp, MI 48035, United States",42.5456643,-82.9020782
Target,"2310 Metro Parkway, Sterling Heights, MI 48310, United States",42.5615677,-83.0846209
Target,"51400 Gratiot Ave, Chesterfield, MI 48051, United States",42.6772956,-82.8287887
Target,"13221 Hall Rd, Utica, MI 48315, United States",42.6281776,-82.9973589
Target,"4300 24th Ave, Fort Gratiot Twp, MI 48059, United States",43.0340747,-82.4527651
Target Grocery,"47330 Michigan Ave, Canton, MI 48188, United States",42.2684225,-83.501134
Target,"20877 Hall Rd, Macomb, MI 48044, United States",42.6311423,-82.9119992
Target,"1 S State St, Chicago, IL 60603, United States",41.8817753,-87.627419
Target,"2420 Laporte Ave, Valparaiso, IN 46383, United States",41.4665228,-87.0308806
Target,"900 Nicollet Mall, Minneapolis, MN 55403, United States",44.974929,-93.274424
Target,"1300 W Lake St, Minneapolis, MN 55408, United States",44.9486317,-93.2959472
Target,"1650 New Brighton Blvd, Minneapolis, MN 55413, United States",45.0049781,-93.2294464
Target,"2500 E Lake St, Minneapolis, MN 55406, United States",44.9494431,-93.2371514
Target,"2555 W 79th St, Bloomington, MN 55431, United States",44.8595138,-93.3113629
Target,"1329 5th St SE, Minneapolis, MN 55414, United States",44.9818047,-93.2351398
Target,"3601 Highway 100 S, Minneapolis, MN 55416, United States",44.9372594,-93.3466055
Target,"6445 Richfield Pkwy, Richfield, MN 55423, United States",44.8855423,-93.2484629
Target,"5537 W Broadway Ave, Crystal, MN 55428, United States",45.0522437,-93.3647968
Target,"2199 MN-36 E, North St Paul, MN 55109, United States",45.0138183,-93.0097154
Target,"449 Commerce Dr, Woodbury, MN 55125, United States",44.9398704,-92.9096377
Target,"1515 County B Rd W, Roseville, MN 55113, United States",45.0080216,-93.1644787
Target,"1744 Suburban Ave, St Paul, MN 55106, United States",44.9497439,-93.0291443
Target,"15300 Grove Cir N, Maple Grove, MN 55369, United States",45.1366633,-93.474724
Target,"4175 Vinewood Ln N, Plymouth, MN 55442, United States",45.0317265,-93.4507297
Target,"1300 University Ave W, St Paul, MN 55104, United States",44.9527377,-93.1556919
Target,"8900 MN-7, St Louis Park, MN 55426, United States",44.9360278,-93.3933865
Target,"810 County Rd 42 W, Burnsville, MN 55337, United States",44.7494159,-93.2894142
Target,"8225 Flying Cloud Dr., Eden Prairie, MN 55344, United States",44.8555607,-93.4257022
Target,"7000 York Ave S, Edina, MN 55435, United States",44.8756361,-93.3240971
Target,"2080 Ford Pkwy, St Paul, MN 55116, United States",44.9175067,-93.1882674
Target,"749 Apollo Dr, Lino Lakes, MN 55014, United States",45.1848734,-93.1049608
Target,"7900 32nd St N, Oakdale, MN 55128, United States",44.9963871,-92.9453026
Target,"2000 Cliff Lake Rd, Eagan, MN 55122, United States",44.791481,-93.2058258
Target,"7535 W Broadway Ave, Brooklyn Park, MN 55428, United States",45.0909984,-93.3785569
Target,"1750 S Robert St, West St Paul, MN 55118, United States",44.8930259,-93.0779699
Target,"755 53rd Ave NE, Fridley, MN 55421, United States",45.0661687,-93.2518928
Target,"8655 E Point Douglas Rd S, Cottage Grove, MN 55016, United States",44.8149774,-92.9299249
Target,"13201 Ridgedale Dr, Minnetonka, MN 55305, United States",44.969604,-93.4478674
Target,"21615 S Diamond Lake Rd, Rogers, MN 55374, United States",45.1975059,-93.554367
Target,"4848 County Rd 101, Minnetonka, MN 55345, United States",44.9166041,-93.5054674
Target,"7841 Amana Trail, Inver Grove Heights, MN 55077, United States",44.836188,-93.0874355
Target,"15150 Cedar Ave, Apple Valley, MN 55124, United States",44.7298812,-93.2141952
